{"type":"FeatureCollection","features":[{"type":"Feature","id":1,"geometry":{"type":"Point","coordinates":[-73.816429999999968,42.687510000000032]},"properties":{"OBJECTID":1,"ean_hotel_id":269955,"name":"Hilton Garden Inn Albany/SUNY Area","address1":"1389 Washington Ave","city":"Albany","state_province":"NY","postal_code":12206,"latitude":42.687510000000003,"longitude":-73.816429999999997,"star_rating":3,"high_rate":154.02719999999999,"low_rate":124.02160000000001}},{"type":"Feature","id":2,"geometry":{"type":"Point","coordinates":[-73.820209999999975,42.689710000000048]},"properties":{"OBJECTID":2,"ean_hotel_id":113431,"name":"Courtyard by Marriott Albany Thruway","address1":"1455 Washington Avenue","city":"Albany","state_province":"NY","postal_code":12206,"latitude":42.689709999999998,"longitude":-73.820210000000003,"star_rating":3,"high_rate":179.00999999999999,"low_rate":134}},{"type":"Feature","id":3,"geometry":{"type":"Point","coordinates":[-73.798219999999958,42.724100000000078]},"properties":{"OBJECTID":3,"ean_hotel_id":108151,"name":"Radisson Hotel Albany","address1":"205 Wolf Rd","city":"Albany","state_province":"NY","postal_code":12205,"latitude":42.7241,"longitude":-73.798220000000001,"star_rating":3,"high_rate":134.16999999999999,"low_rate":84.159999999999997}},{"type":"Feature","id":4,"geometry":{"type":"Point","coordinates":[-73.776379999999961,42.651570000000049]},"properties":{"OBJECTID":4,"ean_hotel_id":254756,"name":"Hilton Garden Inn Albany Medical Center","address1":"62 New Scotland Ave","city":"Albany","state_province":"NY","postal_code":12208,"latitude":42.65157,"longitude":-73.776380000000003,"star_rating":3,"high_rate":308.28070000000002,"low_rate":228.4597}},{"type":"Feature","id":5,"geometry":{"type":"Point","coordinates":[-73.818539999999985,42.688730000000078]},"properties":{"OBJECTID":5,"ean_hotel_id":198232,"name":"CrestHill Suites SUNY University Albany","address1":"1415 Washington Avenue","city":"Albany","state_province":"NY","postal_code":12206,"latitude":42.68873,"longitude":-73.818539999999999,"star_rating":3,"high_rate":169.38999999999999,"low_rate":89.390000000000001}},{"type":"Feature","id":6,"geometry":{"type":"Point","coordinates":[-73.798069999999939,42.728740000000073]},"properties":{"OBJECTID":6,"ean_hotel_id":125200,"name":"The Desmond Hotel Albany","address1":"660 Albany Shaker Rd","city":"Albany","state_province":"NY","postal_code":12211,"latitude":42.728740000000002,"longitude":-73.798069999999996,"star_rating":3.5,"high_rate":189.0266,"low_rate":153.06440000000001}},{"type":"Feature","id":7,"geometry":{"type":"Point","coordinates":[-73.784439999999961,42.680310000000077]},"properties":{"OBJECTID":7,"ean_hotel_id":109728,"name":"Ramada Plaza Albany","address1":"3 Watervliet Avenue Ext","city":"Albany","state_province":"NY","postal_code":12206,"latitude":42.680309999999999,"longitude":-73.784440000000004,"star_rating":3,"high_rate":158.63210000000001,"low_rate":89.036000000000001}},{"type":"Feature","id":8,"geometry":{"type":"Point","coordinates":[-73.751419999999939,42.653340000000071]},"properties":{"OBJECTID":8,"ean_hotel_id":235037,"name":"Hampton Inn & Suites Albany-Downtown","address1":"25 Chapel St","city":"Albany","state_province":"NY","postal_code":12210,"latitude":42.65334,"longitude":-73.751419999999996,"star_rating":2.5,"high_rate":225.47,"low_rate":224.47}},{"type":"Feature","id":9,"geometry":{"type":"Point","coordinates":[-73.800359999999955,42.721110000000067]},"properties":{"OBJECTID":9,"ean_hotel_id":106464,"name":"Albany Marriott","address1":"189 Wolf Rd","city":"Albany","state_province":"NY","postal_code":12205,"latitude":42.721110000000003,"longitude":-73.800359999999998,"star_rating":3.5,"high_rate":158.88560000000001,"low_rate":128.90770000000001}},{"type":"Feature","id":10,"geometry":{"type":"Point","coordinates":[-73.82818999999995,42.678070000000048]},"properties":{"OBJECTID":10,"ean_hotel_id":106922,"name":"Best Western Sovereign Hotel - Albany","address1":"1228 Western Ave","city":"Albany","state_province":"NY","postal_code":12203,"latitude":42.678069999999998,"longitude":-73.828190000000006,"star_rating":3,"high_rate":139.02440000000001,"low_rate":78.325500000000005}},{"type":"Feature","id":11,"geometry":{"type":"Point","coordinates":[-73.820959999999957,42.709590000000048]},"properties":{"OBJECTID":11,"ean_hotel_id":111647,"name":"Express Inn & Suites","address1":"16 Wolf Rd","city":"Albany","state_province":"NY","postal_code":12205,"latitude":42.709589999999999,"longitude":-73.820959999999999,"star_rating":2.5,"high_rate":130.34,"low_rate":120.34}},{"type":"Feature","id":12,"geometry":{"type":"Point","coordinates":[-73.753769999999975,42.650820000000067]},"properties":{"OBJECTID":12,"ean_hotel_id":113084,"name":"Hilton Albany","address1":"40 Lodge Street","city":"Albany","state_province":"NY","postal_code":12207,"latitude":42.650820000000003,"longitude":-73.753770000000003,"star_rating":3.5,"high_rate":294.31999999999999,"low_rate":199.31999999999999}},{"type":"Feature","id":13,"geometry":{"type":"Point","coordinates":[-73.749919999999975,42.645600000000059]},"properties":{"OBJECTID":13,"ean_hotel_id":118602,"name":"Holiday Inn Express Albany Downtown","address1":"300 Broadway","city":"Albany","state_province":"NY","postal_code":12207,"latitude":42.645600000000002,"longitude":-73.749920000000003,"star_rating":2.5,"high_rate":135.06270000000001,"low_rate":100.0442}},{"type":"Feature","id":14,"geometry":{"type":"Point","coordinates":[-73.84937999999994,42.693100000000072]},"properties":{"OBJECTID":14,"ean_hotel_id":437296,"name":"Residence Inn Albany Washington Avenue","address1":"124 Washington Avenue Extension","city":"Albany","state_province":"NY","postal_code":12203,"latitude":42.693100000000001,"longitude":-73.849379999999996,"star_rating":3,"high_rate":189.16,"low_rate":179.16}},{"type":"Feature","id":15,"geometry":{"type":"Point","coordinates":[-73.803279999999972,42.72231000000005]},"properties":{"OBJECTID":15,"ean_hotel_id":122051,"name":"Courtyard by Marriott Albany Airport","address1":"168 Wolf Rd","city":"Albany","state_province":"NY","postal_code":12205,"latitude":42.72231,"longitude":-73.803280000000001,"star_rating":3,"high_rate":174,"low_rate":119.01000000000001}},{"type":"Feature","id":16,"geometry":{"type":"Point","coordinates":[-73.82206999999994,42.708980000000054]},"properties":{"OBJECTID":16,"ean_hotel_id":252452,"name":"Cocca's Inn & Suites Wolf Rd, Albany Airport","address1":"2 Wolf Road","city":"Albany","state_province":"NY","postal_code":12205,"latitude":42.708979999999997,"longitude":-73.822069999999997,"star_rating":2,"high_rate":132.65000000000001,"low_rate":60.450000000000003}},{"type":"Feature","id":17,"geometry":{"type":"Point","coordinates":[-73.833769999999959,42.718400000000031]},"properties":{"OBJECTID":17,"ean_hotel_id":134751,"name":"Days Inn and Suites Albany","address1":"1606 Central Avenue","city":"Albany","state_province":"NY","postal_code":12205,"latitude":42.718400000000003,"longitude":-73.833770000000001,"star_rating":2,"high_rate":190.44999999999999,"low_rate":70.450000000000003}},{"type":"Feature","id":18,"geometry":{"type":"Point","coordinates":[-73.834589999999935,42.719130000000064]},"properties":{"OBJECTID":18,"ean_hotel_id":117936,"name":"Howard Johnson Inn - Albany","address1":"1614 Central Ave","city":"Albany","state_province":"NY","postal_code":12205,"latitude":42.71913,"longitude":-73.834590000000006,"star_rating":1.5,"high_rate":70.239999999999995,"low_rate":51.240000000000002}},{"type":"Feature","id":19,"geometry":{"type":"Point","coordinates":[-73.835299999999961,42.680310000000077]},"properties":{"OBJECTID":19,"ean_hotel_id":119964,"name":"Hampton Inn Albany-Western Ave/University Area","address1":"1442 Western Ave","city":"Albany","state_province":"NY","postal_code":12203,"latitude":42.680309999999999,"longitude":-73.835300000000004,"star_rating":2.5,"high_rate":144.41,"low_rate":124.41}},{"type":"Feature","id":20,"geometry":{"type":"Point","coordinates":[-73.815099999999973,42.686740000000043]},"properties":{"OBJECTID":20,"ean_hotel_id":153579,"name":"TownePlace Suites by Marriott Albany University Area","address1":"1379 Washington Ave","city":"Albany","state_province":"NY","postal_code":12206,"latitude":42.68674,"longitude":-73.815100000000001,"star_rating":2.5,"high_rate":179.08000000000001,"low_rate":119.06999999999999}},{"type":"Feature","id":21,"geometry":{"type":"Point","coordinates":[-73.817089999999951,42.711900000000071]},"properties":{"OBJECTID":21,"ean_hotel_id":324138,"name":"Travelodge Inn And Suites Albany","address1":"42 Wolf Road","city":"Albany","state_province":"NY","postal_code":12205,"latitude":42.7119,"longitude":-73.817089999999993,"star_rating":2.5,"high_rate":74.430000000000007,"low_rate":54.43}},{"type":"Feature","id":22,"geometry":{"type":"Point","coordinates":[-73.800979999999981,42.72398000000004]},"properties":{"OBJECTID":22,"ean_hotel_id":127178,"name":"Red Roof Inn Albany Airport","address1":"188 Wolf Rd","city":"Albany","state_province":"NY","postal_code":12205,"latitude":42.723979999999997,"longitude":-73.800979999999996,"star_rating":2,"high_rate":69.989999999999995,"low_rate":65.219999999999999}},{"type":"Feature","id":23,"geometry":{"type":"Point","coordinates":[-73.802409999999952,42.721840000000043]},"properties":{"OBJECTID":23,"ean_hotel_id":205279,"name":"Best Western Albany Airport Inn","address1":"200 Wolf Rd","city":"Albany","state_province":"NY","postal_code":12205,"latitude":42.72184,"longitude":-73.802409999999995,"star_rating":3,"high_rate":115.34,"low_rate":86.340000000000003}},{"type":"Feature","id":24,"geometry":{"type":"Point","coordinates":[-73.796609999999987,42.724410000000034]},"properties":{"OBJECTID":24,"ean_hotel_id":111978,"name":"Hampton Inn Albany-Wolf Road (Airport)","address1":"10 Ulenski Dr","city":"Albany","state_province":"NY","postal_code":12205,"latitude":42.724409999999999,"longitude":-73.796610000000001,"star_rating":2.5,"high_rate":139,"low_rate":84.115099999999998}},{"type":"Feature","id":25,"geometry":{"type":"Point","coordinates":[-73.828429999999969,42.678160000000048]},"properties":{"OBJECTID":25,"ean_hotel_id":250526,"name":"Days Inn Albany SUNY","address1":"1230 Western Avenue","city":"Albany","state_province":"NY","postal_code":12203,"latitude":42.678159999999998,"longitude":-73.828429999999997,"star_rating":2,"high_rate":180.22,"low_rate":76.629999999999995}},{"type":"Feature","id":26,"geometry":{"type":"Point","coordinates":[-73.798189999999977,42.725190000000055]},"properties":{"OBJECTID":26,"ean_hotel_id":268158,"name":"Homewood Suites by Hilton Albany","address1":"216 Wolf Rd","city":"Albany","state_province":"NY","postal_code":12205,"latitude":42.725189999999998,"longitude":-73.798190000000005,"star_rating":3,"high_rate":194.30000000000001,"low_rate":179.30000000000001}},{"type":"Feature","id":27,"geometry":{"type":"Point","coordinates":[-73.81732999999997,42.68799000000007]},"properties":{"OBJECTID":27,"ean_hotel_id":130527,"name":"Extended Stay America - Albany - SUNY","address1":"1395 Washington Ave","city":"Albany","state_province":"NY","postal_code":12206,"latitude":42.687989999999999,"longitude":-73.817329999999998,"star_rating":2.5,"high_rate":95.070700000000002,"low_rate":90.056700000000006}},{"type":"Feature","id":28,"geometry":{"type":"Point","coordinates":[-73.81574999999998,42.703730000000064]},"properties":{"OBJECTID":28,"ean_hotel_id":261882,"name":"SpringHill Suites by Marriott Albany-Colonie","address1":"8 California Ave","city":"Albany","state_province":"NY","postal_code":12205,"latitude":42.70373,"longitude":-73.815749999999994,"star_rating":3,"high_rate":189.30000000000001,"low_rate":161.30000000000001}},{"type":"Feature","id":29,"geometry":{"type":"Point","coordinates":[-73.835339999999974,42.71977000000004]},"properties":{"OBJECTID":29,"ean_hotel_id":127566,"name":"Quality Inn Central","address1":"1632 Central Ave","city":"Albany","state_province":"NY","postal_code":12205,"latitude":42.719769999999997,"longitude":-73.835340000000002,"star_rating":2.5,"high_rate":99.379999999999995,"low_rate":89}},{"type":"Feature","id":30,"geometry":{"type":"Point","coordinates":[-73.835019999999986,42.719500000000039]},"properties":{"OBJECTID":30,"ean_hotel_id":125498,"name":"Econo Lodge Colonie Center Mall","address1":"1630 Central Ave","city":"Albany","state_province":"NY","postal_code":12205,"latitude":42.719499999999996,"longitude":-73.83502,"star_rating":2,"high_rate":65.999499999999998,"low_rate":60.000599999999999}},{"type":"Feature","id":31,"geometry":{"type":"Point","coordinates":[-73.772089999999935,42.646510000000035]},"properties":{"OBJECTID":31,"ean_hotel_id":275981,"name":"TownePlace Suites by Marriott Albany Downtown/Medical Center","address1":"22 Holland Ave","city":"Albany","state_province":"NY","postal_code":12209,"latitude":42.646509999999999,"longitude":-73.772090000000006,"star_rating":2.5,"high_rate":139.06,"low_rate":129.06}},{"type":"Feature","id":32,"geometry":{"type":"Point","coordinates":[-73.815109999999947,42.686760000000049]},"properties":{"OBJECTID":32,"ean_hotel_id":150421,"name":"Fairfield Inn by Marriott Albany University Area","address1":"1383 Washington Avenue","city":"Albany","state_province":"NY","postal_code":12206,"latitude":42.68676,"longitude":-73.815110000000004,"star_rating":2.5,"high_rate":149.33000000000001,"low_rate":139.33000000000001}},{"type":"Feature","id":33,"geometry":{"type":"Point","coordinates":[-73.833169999999939,42.717840000000081]},"properties":{"OBJECTID":33,"ean_hotel_id":239994,"name":"Motel 6 - Albany Airport","address1":"1600 Central Ave","city":"Albany","state_province":"NY","postal_code":12205,"latitude":42.717840000000002,"longitude":-73.833169999999996,"star_rating":1.5,"high_rate":50.469999999999999,"low_rate":45.469999999999999}},{"type":"Feature","id":34,"geometry":{"type":"Point","coordinates":[-73.782949999999971,42.679720000000032]},"properties":{"OBJECTID":34,"ean_hotel_id":458738,"name":"Motel 6 Albany, New York","address1":"100 Watervliet Ave","city":"Albany","state_province":"NY","postal_code":12206,"latitude":42.679720000000003,"longitude":-73.78295,"star_rating":2,"high_rate":58.990000000000002,"low_rate":49.990000000000002}},{"type":"Feature","id":35,"geometry":{"type":"Point","coordinates":[-73.800219999999968,42.718520000000069]},"properties":{"OBJECTID":35,"ean_hotel_id":538343,"name":"Home2 Suites by Hilton Albany Airport/Wolf Rd","address1":"10 Metro Park Road","city":"Albany","state_province":"NY","postal_code":12205,"latitude":42.718519999999998,"longitude":-73.800219999999996,"star_rating":2.5,"high_rate":164.41999999999999,"low_rate":123.42}},{"type":"Feature","id":36,"geometry":{"type":"Point","coordinates":[-73.818119999999965,42.711380000000077]},"properties":{"OBJECTID":36,"ean_hotel_id":467917,"name":"Staybridge Suites Albany Wolf Rd-Colonie Center","address1":"39 Wolf Rd","city":"Albany","state_province":"NY","postal_code":12205,"latitude":42.711379999999998,"longitude":-73.818119999999993,"star_rating":3,"high_rate":159.08500000000001,"low_rate":119.0063}},{"type":"Feature","id":37,"geometry":{"type":"Point","coordinates":[-73.75222999999994,42.649550000000033]},"properties":{"OBJECTID":37,"ean_hotel_id":480979,"name":"Fairfield Inn & Suites by Marriott Albany Downtown","address1":"74 State Street","city":"Albany","state_province":"NY","postal_code":12207,"latitude":42.649549999999998,"longitude":-73.752229999999997,"star_rating":2.5,"high_rate":149.40000000000001,"low_rate":139.40000000000001}},{"type":"Feature","id":38,"geometry":{"type":"Point","coordinates":[-73.755909999999972,42.65077000000008]},"properties":{"OBJECTID":38,"ean_hotel_id":539733,"name":"Renaissance Albany Hotel","address1":"144 State Street","city":"Albany","state_province":"NY","postal_code":12207,"latitude":42.650770000000001,"longitude":-73.75591,"star_rating":3.5,"high_rate":329.03489999999999,"low_rate":229.0411}},{"type":"Feature","id":39,"geometry":{"type":"Point","coordinates":[-73.83045999999996,42.716680000000053]},"properties":{"OBJECTID":39,"ean_hotel_id":573120,"name":"Red Carpet Inn & Suites - Albany Airport","address1":"1579 Central Avenue","city":"Albany","state_province":"NY","postal_code":12205,"latitude":42.716679999999997,"longitude":-73.830460000000002,"star_rating":2.5,"high_rate":62.994799999999998,"low_rate":60.000599999999999}},{"type":"Feature","id":40,"geometry":{"type":"Point","coordinates":[-78.496569999999963,42.076670000000036]},"properties":{"OBJECTID":40,"ean_hotel_id":255460,"name":"Gallets House B&B","address1":"1759 Four Mile Rd","city":"Allegany","state_province":"NY","postal_code":14706,"latitude":42.07667,"longitude":-78.496570000000006,"star_rating":2.5,"high_rate":140.30000000000001,"low_rate":139.30000000000001}},{"type":"Feature","id":41,"geometry":{"type":"Point","coordinates":[-76.005039999999951,43.513790000000029]},"properties":{"OBJECTID":41,"ean_hotel_id":449674,"name":"Tailwater Lodge","address1":"52 Pulaski St","city":"Altmar","state_province":"NY","postal_code":13302,"latitude":43.51379,"longitude":-76.005039999999994,"star_rating":3,"high_rate":129.0155,"low_rate":129}},{"type":"Feature","id":42,"geometry":{"type":"Point","coordinates":[-78.796379999999942,42.982400000000041]},"properties":{"OBJECTID":42,"ean_hotel_id":231177,"name":"Homewood Suites by Hilton Buffalo/Amherst","address1":"1138 Millersport Hwy","city":"Amherst","state_province":"NY","postal_code":14226,"latitude":42.982399999999998,"longitude":-78.796379999999999,"star_rating":3,"high_rate":239.09999999999999,"low_rate":177.84999999999999}},{"type":"Feature","id":43,"geometry":{"type":"Point","coordinates":[-78.792239999999936,42.990280000000041]},"properties":{"OBJECTID":43,"ean_hotel_id":116591,"name":"DoubleTree by Hilton Hotel Buffalo - Amherst","address1":"10 Flint Rd","city":"Amherst","state_province":"NY","postal_code":14226,"latitude":42.990279999999998,"longitude":-78.792240000000007,"star_rating":3.5,"high_rate":160.44999999999999,"low_rate":159.44999999999999}},{"type":"Feature","id":44,"geometry":{"type":"Point","coordinates":[-78.792149999999936,42.990590000000054]},"properties":{"OBJECTID":44,"ean_hotel_id":203763,"name":"Comfort Inn University","address1":"1 Flint Rd","city":"Amherst","state_province":"NY","postal_code":14226,"latitude":42.990589999999997,"longitude":-78.792150000000007,"star_rating":2.5,"high_rate":87.25,"low_rate":68.040000000000006}},{"type":"Feature","id":45,"geometry":{"type":"Point","coordinates":[-78.792439999999942,42.989850000000047]},"properties":{"OBJECTID":45,"ean_hotel_id":127175,"name":"Red Roof Inn PLUS+ University at Buffalo - Amherst","address1":"42 Flint Rd","city":"Amherst","state_province":"NY","postal_code":14226,"latitude":42.989849999999997,"longitude":-78.792439999999999,"star_rating":2.5,"high_rate":80.989999999999995,"low_rate":79.989999999999995}},{"type":"Feature","id":46,"geometry":{"type":"Point","coordinates":[-78.784009999999967,42.991390000000081]},"properties":{"OBJECTID":46,"ean_hotel_id":269877,"name":"Residence Inn Buffalo Amherst","address1":"100 Maple Rd","city":"Amherst","state_province":"NY","postal_code":14221,"latitude":42.991390000000003,"longitude":-78.784009999999995,"star_rating":3,"high_rate":140.035,"low_rate":139.035}},{"type":"Feature","id":47,"geometry":{"type":"Point","coordinates":[-78.791609999999935,42.988910000000033]},"properties":{"OBJECTID":47,"ean_hotel_id":106439,"name":"Buffalo Marriott Niagara","address1":"1340 Millersport Hwy","city":"Amherst","state_province":"NY","postal_code":14221,"latitude":42.988909999999997,"longitude":-78.791610000000006,"star_rating":3.5,"high_rate":209.09,"low_rate":127.06999999999999}},{"type":"Feature","id":48,"geometry":{"type":"Point","coordinates":[-78.818269999999984,43.005670000000066]},"properties":{"OBJECTID":48,"ean_hotel_id":136100,"name":"Extended Stay America - Buffalo - Amherst","address1":"125 Inn Keepers Ln","city":"Amherst","state_province":"NY","postal_code":14228,"latitude":43.005670000000002,"longitude":-78.818269999999998,"star_rating":2.5,"high_rate":75.670000000000002,"low_rate":65.170000000000002}},{"type":"Feature","id":49,"geometry":{"type":"Point","coordinates":[-78.799799999999948,42.997020000000077]},"properties":{"OBJECTID":49,"ean_hotel_id":436980,"name":"Staybridge Suites Buffalo-Amherst","address1":"1290 Sweethome Rd","city":"Amherst","state_province":"NY","postal_code":14228,"latitude":42.997019999999999,"longitude":-78.799800000000005,"star_rating":3,"high_rate":290.44999999999999,"low_rate":136.44999999999999}},{"type":"Feature","id":50,"geometry":{"type":"Point","coordinates":[-78.780799999999942,42.978460000000041]},"properties":{"OBJECTID":50,"ean_hotel_id":276923,"name":"Courtyard by Marriott Buffalo Amherst/University","address1":"4100 Sheridan Dr","city":"Amherst","state_province":"NY","postal_code":14221,"latitude":42.978459999999998,"longitude":-78.780799999999999,"star_rating":3,"high_rate":154.31999999999999,"low_rate":129.31999999999999}},{"type":"Feature","id":51,"geometry":{"type":"Point","coordinates":[-78.819129999999973,43.006350000000054]},"properties":{"OBJECTID":51,"ean_hotel_id":143109,"name":"Sleep Inn","address1":"75 Inn Keepers Ln","city":"Amherst","state_province":"NY","postal_code":14228,"latitude":43.006349999999998,"longitude":-78.819130000000001,"star_rating":2,"high_rate":85.560400000000001,"low_rate":72.049199999999999}},{"type":"Feature","id":52,"geometry":{"type":"Point","coordinates":[-78.801939999999945,42.990720000000067]},"properties":{"OBJECTID":52,"ean_hotel_id":458792,"name":"Motel 6 Buffalo - Amherst","address1":"4400 Maple Rd","city":"Amherst","state_province":"NY","postal_code":14226,"latitude":42.990720000000003,"longitude":-78.801940000000002,"star_rating":2,"high_rate":55.046999999999997,"low_rate":52.008200000000002}},{"type":"Feature","id":53,"geometry":{"type":"Point","coordinates":[-78.822169999999971,43.007530000000031]},"properties":{"OBJECTID":53,"ean_hotel_id":152226,"name":"Rodeway Inn & Suites","address1":"1951 Niagara Falls Blvd","city":"Amherst","state_province":"NY","postal_code":14228,"latitude":43.007530000000003,"longitude":-78.82217,"star_rating":1.5,"high_rate":58.810000000000002,"low_rate":46.020000000000003}},{"type":"Feature","id":54,"geometry":{"type":"Point","coordinates":[-78.815099999999973,42.959070000000054]},"properties":{"OBJECTID":54,"ean_hotel_id":364655,"name":"University Manor Inn","address1":"3612 Main Street","city":"Amherst","state_province":"NY","postal_code":14226,"latitude":42.959069999999997,"longitude":-78.815100000000001,"star_rating":2,"high_rate":109.98999999999999,"low_rate":79.989999999999995}},{"type":"Feature","id":55,"geometry":{"type":"Point","coordinates":[-78.769929999999988,42.959340000000054]},"properties":{"OBJECTID":55,"ean_hotel_id":498900,"name":"Hyatt Place Buffalo/Amherst","address1":"5020 Main Street","city":"Amherst","state_province":"NY","postal_code":14226,"latitude":42.959339999999997,"longitude":-78.769930000000002,"star_rating":3,"high_rate":224.16999999999999,"low_rate":199.66999999999999}},{"type":"Feature","id":56,"geometry":{"type":"Point","coordinates":[-78.792279999999948,42.990320000000054]},"properties":{"OBJECTID":56,"ean_hotel_id":312059,"name":"Candlewood Suites Buffalo - Amherst","address1":"20 Flint Road","city":"Amherst","state_province":"NY","postal_code":14226,"latitude":42.990319999999997,"longitude":-78.792280000000005,"star_rating":2.5,"high_rate":150.37,"low_rate":94.370000000000005}},{"type":"Feature","id":57,"geometry":{"type":"Point","coordinates":[-74.202259999999967,42.925630000000069]},"properties":{"OBJECTID":57,"ean_hotel_id":208593,"name":"Super 8 - Amsterdam","address1":"5502 Rte 30 South I 90 Exit 27","city":"Amsterdam","state_province":"NY","postal_code":12010,"latitude":42.925629999999998,"longitude":-74.202259999999995,"star_rating":2,"high_rate":71.998599999999996,"low_rate":67.0047}},{"type":"Feature","id":58,"geometry":{"type":"Point","coordinates":[-74.200699999999983,42.928940000000068]},"properties":{"OBJECTID":58,"ean_hotel_id":562127,"name":"Knights Inn Amsterdam","address1":"Route 5S","city":"Amsterdam","state_province":"NY","postal_code":12010,"latitude":42.928939999999997,"longitude":-74.200699999999998,"star_rating":2.5,"high_rate":99.009900000000002,"low_rate":59.006}},{"type":"Feature","id":59,"geometry":{"type":"Point","coordinates":[-76.143599999999935,42.061100000000067]},"properties":{"OBJECTID":59,"ean_hotel_id":433086,"name":"Comfort Inn","address1":"7662 State Rte 434","city":"Apalachin","state_province":"NY","postal_code":13732,"latitude":42.061100000000003,"longitude":-76.143600000000006,"star_rating":2.5,"high_rate":81.420000000000002,"low_rate":80.420000000000002}},{"type":"Feature","id":60,"geometry":{"type":"Point","coordinates":[-76.143909999999948,42.059890000000053]},"properties":{"OBJECTID":60,"ean_hotel_id":233290,"name":"Quality Inn Binghamton West","address1":"7666 Route 434","city":"Apalachin","state_province":"NY","postal_code":13732,"latitude":42.059890000000003,"longitude":-76.143910000000005,"star_rating":2.5,"high_rate":71.400000000000006,"low_rate":70.400000000000006}},{"type":"Feature","id":61,"geometry":{"type":"Point","coordinates":[-73.851509999999962,41.008690000000058]},"properties":{"OBJECTID":61,"ean_hotel_id":226561,"name":"Ardsley Acres Hotel Westchester","address1":"560 Saw Mill River Rd","city":"Ardsley","state_province":"NY","postal_code":10502,"latitude":41.008690000000001,"longitude":-73.851510000000005,"star_rating":2,"high_rate":101.34999999999999,"low_rate":100.34999999999999}},{"type":"Feature","id":62,"geometry":{"type":"Point","coordinates":[-73.708249999999964,41.119650000000036]},"properties":{"OBJECTID":62,"ean_hotel_id":106923,"name":"La Quinta inn & Suites Armonk Westchester County Airport","address1":"94 Business Park Dr","city":"Armonk","state_province":"NY","postal_code":10504,"latitude":41.11965,"longitude":-73.708250000000007,"star_rating":2.5,"high_rate":100.45,"low_rate":95.450000000000003}},{"type":"Feature","id":63,"geometry":{"type":"Point","coordinates":[-73.905629999999974,40.767910000000029]},"properties":{"OBJECTID":63,"ean_hotel_id":252608,"name":"Fairfield Inn by Marriott New York LaGuardia Airport/Astoria","address1":"45-20 Astoria Blvd.","city":"Astoria","state_province":"NY","postal_code":11103,"latitude":40.767910000000001,"longitude":-73.905630000000002,"star_rating":2.5,"high_rate":169.34999999999999,"low_rate":159.34999999999999}},{"type":"Feature","id":64,"geometry":{"type":"Point","coordinates":[-73.933479999999975,40.766790000000071]},"properties":{"OBJECTID":64,"ean_hotel_id":224415,"name":"Super 8 Long Island City, LGA Hotel","address1":"31-62 14th Street","city":"Astoria","state_province":"NY","postal_code":11106,"latitude":40.76679,"longitude":-73.933480000000003,"star_rating":2,"high_rate":211.02289999999999,"low_rate":102.00409999999999}},{"type":"Feature","id":65,"geometry":{"type":"Point","coordinates":[-73.807999999999936,42.259840000000054]},"properties":{"OBJECTID":65,"ean_hotel_id":515540,"name":"Stewart House at the Athens Hotel","address1":"2 North Water Street","city":"Athens","state_province":"NY","postal_code":12015,"latitude":42.259839999999997,"longitude":-73.808000000000007,"star_rating":3,"high_rate":349.05279999999999,"low_rate":249.0377}},{"type":"Feature","id":66,"geometry":{"type":"Point","coordinates":[-76.569469999999967,42.933110000000056]},"properties":{"OBJECTID":66,"ean_hotel_id":410019,"name":"Hilton Garden Inn Auburn","address1":"74 State St","city":"Auburn","state_province":"NY","postal_code":13021,"latitude":42.933109999999999,"longitude":-76.569469999999995,"star_rating":3,"high_rate":139.46000000000001,"low_rate":109.45999999999999}},{"type":"Feature","id":67,"geometry":{"type":"Point","coordinates":[-76.566309999999987,42.928320000000042]},"properties":{"OBJECTID":67,"ean_hotel_id":124395,"name":"Days Inn Auburn Fingerlakes","address1":"37 William St","city":"Auburn","state_province":"NY","postal_code":13021,"latitude":42.928319999999999,"longitude":-76.566310000000001,"star_rating":2,"high_rate":74.329999999999998,"low_rate":70.329999999999998}},{"type":"Feature","id":68,"geometry":{"type":"Point","coordinates":[-76.573779999999942,42.932040000000029]},"properties":{"OBJECTID":68,"ean_hotel_id":201347,"name":"Auburn Inn","address1":"19 McMaster St","city":"Auburn","state_province":"NY","postal_code":13021,"latitude":42.932040000000001,"longitude":-76.573779999999999,"star_rating":2,"high_rate":75.480000000000004,"low_rate":65.480000000000004}},{"type":"Feature","id":69,"geometry":{"type":"Point","coordinates":[-76.566359999999975,42.934610000000077]},"properties":{"OBJECTID":69,"ean_hotel_id":107975,"name":"Holiday Inn Auburn-Finger Lakes Region","address1":"75 North St","city":"Auburn","state_province":"NY","postal_code":13021,"latitude":42.934609999999999,"longitude":-76.566360000000003,"star_rating":3,"high_rate":174.44999999999999,"low_rate":143.44999999999999}},{"type":"Feature","id":70,"geometry":{"type":"Point","coordinates":[-76.469469999999944,42.942880000000059]},"properties":{"OBJECTID":70,"ean_hotel_id":538682,"name":"Skaneateles Suites","address1":"4114 E Genesee Street","city":"Auburn","state_province":"NY","postal_code":13152,"latitude":42.942880000000002,"longitude":-76.469470000000001,"star_rating":2.5,"high_rate":225.08000000000001,"low_rate":150.06}},{"type":"Feature","id":71,"geometry":{"type":"Point","coordinates":[-76.562289999999962,42.934240000000045]},"properties":{"OBJECTID":71,"ean_hotel_id":634158,"name":"Inn at the Finger Lakes","address1":"12 Seminary Ave","city":"Auburn","state_province":"NY","postal_code":13021,"latitude":42.934240000000003,"longitude":-76.562290000000004,"star_rating":2.5,"high_rate":109.41,"low_rate":71.409999999999997}},{"type":"Feature","id":72,"geometry":{"type":"Point","coordinates":[-76.332039999999949,43.156130000000076]},"properties":{"OBJECTID":72,"ean_hotel_id":259087,"name":"The Red Mill Inn","address1":"4 Syracuse St","city":"Baldwinsville","state_province":"NY","postal_code":13027,"latitude":43.156129999999997,"longitude":-76.332040000000006,"star_rating":2.5,"high_rate":139.18000000000001,"low_rate":59.189999999999998}},{"type":"Feature","id":73,"geometry":{"type":"Point","coordinates":[-76.345329999999933,43.151280000000042]},"properties":{"OBJECTID":73,"ean_hotel_id":195601,"name":"Microtel Inn & Suites by Wyndham Baldwinsville/Syracuse","address1":"131 Downer St","city":"Baldwinsville","state_province":"NY","postal_code":13027,"latitude":43.15128,"longitude":-76.345330000000004,"star_rating":2,"high_rate":80.439999999999998,"low_rate":59.490000000000002}},{"type":"Feature","id":74,"geometry":{"type":"Point","coordinates":[-76.33379999999994,43.160990000000027]},"properties":{"OBJECTID":74,"ean_hotel_id":484688,"name":"Baldwinsville Bed and Breakfast","address1":"70 Oswego Street","city":"Baldwinsville","state_province":"NY","postal_code":13027,"latitude":43.160989999999998,"longitude":-76.333799999999997,"star_rating":3.5,"high_rate":120.17,"low_rate":119.17}},{"type":"Feature","id":75,"geometry":{"type":"Point","coordinates":[-73.792369999999949,43.027130000000056]},"properties":{"OBJECTID":75,"ean_hotel_id":276724,"name":"Roosevelt Inn And Suites","address1":"2961 State Route 9","city":"Ballston Spa","state_province":"NY","postal_code":12020,"latitude":43.02713,"longitude":-73.792370000000005,"star_rating":2.5,"high_rate":389.22000000000003,"low_rate":327.55000000000001}},{"type":"Feature","id":76,"geometry":{"type":"Point","coordinates":[-74.922979999999939,41.507640000000038]},"properties":{"OBJECTID":76,"ean_hotel_id":538573,"name":"Catskill Mountains Resort","address1":"211 Mail Rd","city":"Barryville","state_province":"NY","postal_code":12719,"latitude":41.507640000000002,"longitude":-74.922979999999995,"star_rating":2,"high_rate":223.4838,"low_rate":170.6404}},{"type":"Feature","id":77,"geometry":{"type":"Point","coordinates":[-78.194249999999954,43.020060000000058]},"properties":{"OBJECTID":77,"ean_hotel_id":218706,"name":"Hampton Inn Batavia","address1":"4360 Commerce Dr","city":"Batavia","state_province":"NY","postal_code":14020,"latitude":43.020060000000001,"longitude":-78.194249999999997,"star_rating":2.5,"high_rate":129.38,"low_rate":89.379999999999995}},{"type":"Feature","id":78,"geometry":{"type":"Point","coordinates":[-78.195539999999937,43.016560000000027]},"properties":{"OBJECTID":78,"ean_hotel_id":177921,"name":"Best Western Crown Inn & Suites","address1":"8210 Park Rd","city":"Batavia","state_province":"NY","postal_code":14020,"latitude":43.016559999999998,"longitude":-78.195539999999994,"star_rating":2.5,"high_rate":79.989999999999995,"low_rate":62.990000000000002}},{"type":"Feature","id":79,"geometry":{"type":"Point","coordinates":[-78.194339999999954,43.019780000000026]},"properties":{"OBJECTID":79,"ean_hotel_id":411011,"name":"Holiday Inn Express Hotel & Suites Batavia - Darien Lake","address1":"4356 Commerce Dr","city":"Batavia","state_province":"NY","postal_code":14020,"latitude":43.019779999999997,"longitude":-78.194339999999997,"star_rating":2.5,"high_rate":114.47,"low_rate":94.469999999999999}},{"type":"Feature","id":80,"geometry":{"type":"Point","coordinates":[-78.192709999999977,43.021000000000072]},"properties":{"OBJECTID":80,"ean_hotel_id":137866,"name":"Comfort Inn","address1":"4371 Federal Dr","city":"Batavia","state_province":"NY","postal_code":14020,"latitude":43.021000000000001,"longitude":-78.192710000000005,"star_rating":2.5,"high_rate":74.310000000000002,"low_rate":74}},{"type":"Feature","id":81,"geometry":{"type":"Point","coordinates":[-78.192219999999963,43.016090000000077]},"properties":{"OBJECTID":81,"ean_hotel_id":229344,"name":"La Quinta Inn & Suites Batavia","address1":"8200 Park Rd","city":"Batavia","state_province":"NY","postal_code":14020,"latitude":43.016089999999998,"longitude":-78.192220000000006,"star_rating":2.5,"high_rate":89.379999999999995,"low_rate":79.379999999999995}},{"type":"Feature","id":82,"geometry":{"type":"Point","coordinates":[-78.194099999999935,43.016390000000058]},"properties":{"OBJECTID":82,"ean_hotel_id":149424,"name":"Quality Inn & Suites Palm Island Indoor Waterpark","address1":"8250 Park Rd","city":"Batavia","state_province":"NY","postal_code":14020,"latitude":43.016390000000001,"longitude":-78.194100000000006,"star_rating":3,"high_rate":74.310000000000002,"low_rate":73.310000000000002}},{"type":"Feature","id":83,"geometry":{"type":"Point","coordinates":[-78.192309999999964,43.016090000000077]},"properties":{"OBJECTID":83,"ean_hotel_id":209876,"name":"Red Roof Inn Batavia","address1":"8204 Park Rd","city":"Batavia","state_province":"NY","postal_code":14020,"latitude":43.016089999999998,"longitude":-78.192310000000006,"star_rating":2,"high_rate":64.480000000000004,"low_rate":63.479999999999997}},{"type":"Feature","id":84,"geometry":{"type":"Point","coordinates":[-78.192069999999944,43.014590000000055]},"properties":{"OBJECTID":84,"ean_hotel_id":201529,"name":"Super 8 Batavia E Of Darien Lake Theme Park","address1":"200a Oak St","city":"Batavia","state_province":"NY","postal_code":14020,"latitude":43.014589999999998,"longitude":-78.192070000000001,"star_rating":2,"high_rate":107.98999999999999,"low_rate":57.990000000000002}},{"type":"Feature","id":85,"geometry":{"type":"Point","coordinates":[-78.192069999999944,43.01458000000008]},"properties":{"OBJECTID":85,"ean_hotel_id":128681,"name":"Days Inn Batavia","address1":"200 Oak St","city":"Batavia","state_province":"NY","postal_code":14020,"latitude":43.014580000000002,"longitude":-78.192070000000001,"star_rating":2,"high_rate":90.150000000000006,"low_rate":51.159999999999997}},{"type":"Feature","id":86,"geometry":{"type":"Point","coordinates":[-77.334329999999966,42.339600000000075]},"properties":{"OBJECTID":86,"ean_hotel_id":260324,"name":"Microtel Inn & Suites by Wyndham Bath","address1":"370 W Morris Street","city":"Bath","state_province":"NY","postal_code":14810,"latitude":42.339599999999997,"longitude":-77.334329999999994,"star_rating":2.5,"high_rate":77.150000000000006,"low_rate":57}},{"type":"Feature","id":87,"geometry":{"type":"Point","coordinates":[-77.329419999999971,42.336190000000045]},"properties":{"OBJECTID":87,"ean_hotel_id":201355,"name":"Super 8 Bath Hammondsport Area","address1":"333 W Morris Street","city":"Bath","state_province":"NY","postal_code":14810,"latitude":42.336190000000002,"longitude":-77.329419999999999,"star_rating":2,"high_rate":62,"low_rate":52}},{"type":"Feature","id":88,"geometry":{"type":"Point","coordinates":[-77.329369999999983,42.336160000000064]},"properties":{"OBJECTID":88,"ean_hotel_id":109196,"name":"Days Inn Bath Hammondsport","address1":"330 W Morris St","city":"Bath","state_province":"NY","postal_code":14810,"latitude":42.33616,"longitude":-77.329369999999997,"star_rating":2,"high_rate":65.409999999999997,"low_rate":55.409999999999997}},{"type":"Feature","id":89,"geometry":{"type":"Point","coordinates":[-77.330349999999953,42.336570000000052]},"properties":{"OBJECTID":89,"ean_hotel_id":224895,"name":"Budget Inn Bath","address1":"332 W. Morris Street","city":"Bath","state_province":"NY","postal_code":14810,"latitude":42.336570000000002,"longitude":-77.330349999999996,"star_rating":2,"high_rate":55,"low_rate":52}},{"type":"Feature","id":90,"geometry":{"type":"Point","coordinates":[-73.276629999999955,40.732220000000041]},"properties":{"OBJECTID":90,"ean_hotel_id":427232,"name":"Bay Shore Inn","address1":"300 Bay Shore Rd","city":"Bay Shore","state_province":"NY","postal_code":11706,"latitude":40.732219999999998,"longitude":-73.276629999999997,"star_rating":1.5,"high_rate":98.721699999999998,"low_rate":97.721699999999998}},{"type":"Feature","id":91,"geometry":{"type":"Point","coordinates":[-73.231379999999945,40.727320000000077]},"properties":{"OBJECTID":91,"ean_hotel_id":207012,"name":"Travelodge Bay Shore Long Island","address1":"501 E Main Street","city":"Bay Shore","state_province":"NY","postal_code":11706,"latitude":40.727319999999999,"longitude":-73.231380000000001,"star_rating":1.5,"high_rate":180.02279999999999,"low_rate":106.268}},{"type":"Feature","id":92,"geometry":{"type":"Point","coordinates":[-73.759739999999965,40.761790000000076]},"properties":{"OBJECTID":92,"ean_hotel_id":220355,"name":"Adria Hotel And Conference Center","address1":"221-17 Northern Blvd","city":"Bayside","state_province":"NY","postal_code":11361,"latitude":40.761789999999998,"longitude":-73.759739999999994,"star_rating":3,"high_rate":180.15000000000001,"low_rate":160}},{"type":"Feature","id":93,"geometry":{"type":"Point","coordinates":[-73.766119999999944,40.760760000000062]},"properties":{"OBJECTID":93,"ean_hotel_id":130161,"name":"Anchor Inn","address1":"215-34 Northern Blvd","city":"Bayside","state_province":"NY","postal_code":11361,"latitude":40.760759999999998,"longitude":-73.766120000000001,"star_rating":2,"high_rate":185.53,"low_rate":159.03}},{"type":"Feature","id":94,"geometry":{"type":"Point","coordinates":[-73.760589999999979,40.761660000000063]},"properties":{"OBJECTID":94,"ean_hotel_id":115172,"name":"Best Western Queens Gold Coast","address1":"220-33 Northern Blvd","city":"Bayside","state_province":"NY","postal_code":11361,"latitude":40.761659999999999,"longitude":-73.760589999999993,"star_rating":2.5,"high_rate":165.40000000000001,"low_rate":155.40000000000001}},{"type":"Feature","id":95,"geometry":{"type":"Point","coordinates":[-73.962489999999946,41.502520000000061]},"properties":{"OBJECTID":95,"ean_hotel_id":566299,"name":"The Roundhouse","address1":"2 E Main St","city":"Beacon","state_province":"NY","postal_code":12508,"latitude":41.502519999999997,"longitude":-73.962490000000003,"star_rating":3.5,"high_rate":190.44,"low_rate":189.44}},{"type":"Feature","id":96,"geometry":{"type":"Point","coordinates":[-73.715579999999989,40.726560000000063]},"properties":{"OBJECTID":96,"ean_hotel_id":350825,"name":"Bellerose Inn","address1":"249-05 Jericho Turnpike","city":"Bellerose","state_province":"NY","postal_code":11426,"latitude":40.726559999999999,"longitude":-73.715580000000003,"star_rating":2,"high_rate":100,"low_rate":99}},{"type":"Feature","id":97,"geometry":{"type":"Point","coordinates":[-72.947659999999985,40.808580000000063]},"properties":{"OBJECTID":97,"ean_hotel_id":343306,"name":"SpringHill Suites by Marriott Long Island Brookhaven","address1":"2 Sawgrass Dr","city":"Bellport","state_province":"NY","postal_code":11713,"latitude":40.808579999999999,"longitude":-72.947659999999999,"star_rating":3,"high_rate":139.01740000000001,"low_rate":119.0164}},{"type":"Feature","id":98,"geometry":{"type":"Point","coordinates":[-79.417929999999956,42.193130000000053]},"properties":{"OBJECTID":98,"ean_hotel_id":669535,"name":"Maple Springs Lake Side Inn","address1":"4696 Chautauqua Avenue","city":"Bemus Point","state_province":"NY","postal_code":14712,"latitude":42.193129999999996,"longitude":-79.417929999999998,"star_rating":3,"high_rate":150.47999999999999,"low_rate":149.47999999999999}},{"type":"Feature","id":99,"geometry":{"type":"Point","coordinates":[-73.499869999999987,40.760010000000079]},"properties":{"OBJECTID":99,"ean_hotel_id":261411,"name":"Extended Stay America - Long Island - Bethpage","address1":"905 S Oyster Bay Rd","city":"Bethpage","state_province":"NY","postal_code":11714,"latitude":40.760010000000001,"longitude":-73.499870000000001,"star_rating":2.5,"high_rate":115.45999999999999,"low_rate":105.45999999999999}},{"type":"Feature","id":100,"geometry":{"type":"Point","coordinates":[-75.903659999999945,42.142340000000047]},"properties":{"OBJECTID":100,"ean_hotel_id":433987,"name":"Motel 6 Binghamton","address1":"1012 Upper Front Street","city":"Binghamton","state_province":"NY","postal_code":13905,"latitude":42.142339999999997,"longitude":-75.903660000000002,"star_rating":2,"high_rate":65.989999999999995,"low_rate":55.990000000000002}},{"type":"Feature","id":101,"geometry":{"type":"Point","coordinates":[-75.914849999999944,42.097470000000044]},"properties":{"OBJECTID":101,"ean_hotel_id":107922,"name":"Holiday Inn Binghamton - Downtown (Hawley St.)","address1":"2-8 Hawley Street","city":"Binghamton","state_province":"NY","postal_code":13901,"latitude":42.097470000000001,"longitude":-75.914850000000001,"star_rating":3,"high_rate":126.40000000000001,"low_rate":97.400000000000006}},{"type":"Feature","id":102,"geometry":{"type":"Point","coordinates":[-75.914649999999938,42.100910000000056]},"properties":{"OBJECTID":102,"ean_hotel_id":341158,"name":"DoubleTree by Hilton Hotel Binghamton","address1":"225 Water St","city":"Binghamton","state_province":"NY","postal_code":13901,"latitude":42.100909999999999,"longitude":-75.914649999999995,"star_rating":3,"high_rate":159.38,"low_rate":105.38}},{"type":"Feature","id":103,"geometry":{"type":"Point","coordinates":[-75.90582999999998,42.130340000000047]},"properties":{"OBJECTID":103,"ean_hotel_id":169615,"name":"Fairfield Inn by Marriott Binghamton","address1":"864 Upper Front St","city":"Binghamton","state_province":"NY","postal_code":13905,"latitude":42.130339999999997,"longitude":-75.905829999999995,"star_rating":2.5,"high_rate":110.0159,"low_rate":109.0159}},{"type":"Feature","id":104,"geometry":{"type":"Point","coordinates":[-75.903749999999945,42.141640000000052]},"properties":{"OBJECTID":104,"ean_hotel_id":112292,"name":"Comfort Inn Binghamton","address1":"1000 Upper Front St","city":"Binghamton","state_province":"NY","postal_code":13905,"latitude":42.141640000000002,"longitude":-75.903750000000002,"star_rating":2.5,"high_rate":124.98999999999999,"low_rate":119.98999999999999}},{"type":"Feature","id":105,"geometry":{"type":"Point","coordinates":[-75.909199999999942,42.125340000000051]},"properties":{"OBJECTID":105,"ean_hotel_id":109003,"name":"Econo Lodge Inn And Suites","address1":"690 Old Front St","city":"Binghamton","state_province":"NY","postal_code":13905,"latitude":42.125340000000001,"longitude":-75.909199999999998,"star_rating":2,"high_rate":71.340000000000003,"low_rate":70.340000000000003}},{"type":"Feature","id":106,"geometry":{"type":"Point","coordinates":[-75.909759999999949,42.12453000000005]},"properties":{"OBJECTID":106,"ean_hotel_id":201389,"name":"Red Roof Inn Binghamton North","address1":"650 Old Front St","city":"Binghamton","state_province":"NY","postal_code":13905,"latitude":42.12453,"longitude":-75.909760000000006,"star_rating":2,"high_rate":69.989999999999995,"low_rate":65.599999999999994}},{"type":"Feature","id":107,"geometry":{"type":"Point","coordinates":[-75.945519999999988,42.109010000000069]},"properties":{"OBJECTID":107,"ean_hotel_id":486055,"name":"Park House Bed and Breakfast","address1":"85 Park Street","city":"Binghamton","state_province":"NY","postal_code":13905,"latitude":42.109009999999998,"longitude":-75.945520000000002,"star_rating":3,"high_rate":110.44,"low_rate":95.439999999999998}},{"type":"Feature","id":108,"geometry":{"type":"Point","coordinates":[-75.945409999999981,42.118900000000053]},"properties":{"OBJECTID":108,"ean_hotel_id":619673,"name":"Microtel Inn & Suites By Wyndham Binghamton","address1":"400 Prospect Street","city":"Binghamton","state_province":"NY","postal_code":13905,"latitude":42.118899999999996,"longitude":-75.945409999999995,"star_rating":2.5,"high_rate":169.33000000000001,"low_rate":122.40000000000001}},{"type":"Feature","id":109,"geometry":{"type":"Point","coordinates":[-78.817819999999983,42.789870000000064]},"properties":{"OBJECTID":109,"ean_hotel_id":132213,"name":"Econo Lodge South","address1":"4344 Milestrip Rd.","city":"Blasdell","state_province":"NY","postal_code":14219,"latitude":42.789870000000001,"longitude":-78.817819999999998,"star_rating":2,"high_rate":66,"low_rate":54.442300000000003}},{"type":"Feature","id":110,"geometry":{"type":"Point","coordinates":[-73.095519999999965,40.779880000000048]},"properties":{"OBJECTID":110,"ean_hotel_id":242093,"name":"La Quinta Inn & Suites Islip-MacArthur Airport","address1":"10 Aero Rd","city":"Bohemia","state_province":"NY","postal_code":11716,"latitude":40.779879999999999,"longitude":-73.095519999999993,"star_rating":2.5,"high_rate":239.16,"low_rate":145.00999999999999}},{"type":"Feature","id":111,"geometry":{"type":"Point","coordinates":[-73.113759999999957,40.784940000000063]},"properties":{"OBJECTID":111,"ean_hotel_id":479839,"name":"Lakeland Inn","address1":"1630 Lakeland Avenue","city":"Bohemia","state_province":"NY","postal_code":11716,"latitude":40.784939999999999,"longitude":-73.113759999999999,"star_rating":2,"high_rate":80,"low_rate":73.189999999999998}},{"type":"Feature","id":112,"geometry":{"type":"Point","coordinates":[-73.664389999999969,43.564550000000054]},"properties":{"OBJECTID":112,"ean_hotel_id":685044,"name":"Highlands Castle","address1":"19 Skyline Drive","city":"Bolton Landing","state_province":"NY","postal_code":12814,"latitude":43.564549999999997,"longitude":-73.664389999999997,"star_rating":null,"high_rate":0,"low_rate":0}},{"type":"Feature","id":113,"geometry":{"type":"Point","coordinates":[-78.693989999999985,42.949020000000075]},"properties":{"OBJECTID":113,"ean_hotel_id":127173,"name":"Red Roof Inn Buffalo - Niagara Airport","address1":"146 Maple Drive","city":"Bowmansville","state_province":"NY","postal_code":14026,"latitude":42.949019999999997,"longitude":-78.693989999999999,"star_rating":2,"high_rate":69.989999999999995,"low_rate":60.43}},{"type":"Feature","id":114,"geometry":{"type":"Point","coordinates":[-76.133599999999944,43.232690000000048]},"properties":{"OBJECTID":114,"ean_hotel_id":150010,"name":"Days Inn Brewerton/Syracuse/Airport","address1":"5552 Bartel Rd","city":"Brewerton","state_province":"NY","postal_code":13029,"latitude":43.232689999999998,"longitude":-76.133600000000001,"star_rating":2.5,"high_rate":127.11,"low_rate":65.459999999999994}},{"type":"Feature","id":115,"geometry":{"type":"Point","coordinates":[-72.300689999999975,40.937800000000038]},"properties":{"OBJECTID":115,"ean_hotel_id":482259,"name":"Topping Rose House","address1":"One Bridgehampton - Sag Harbor Turnpike","city":"Bridgehampton","state_province":"NY","postal_code":11932,"latitude":40.937800000000003,"longitude":-72.300690000000003,"star_rating":4.5,"high_rate":995.38999999999999,"low_rate":295.38999999999999}},{"type":"Feature","id":116,"geometry":{"type":"Point","coordinates":[-73.812469999999962,40.587400000000059]},"properties":{"OBJECTID":116,"ean_hotel_id":448735,"name":"Playland Motel","address1":"97-20 Rockaway Beach Blvd","city":"Broad Channel","state_province":"NY","postal_code":11693,"latitude":40.587400000000002,"longitude":-73.812470000000005,"star_rating":3,"high_rate":249.46000000000001,"low_rate":129.46000000000001}},{"type":"Feature","id":117,"geometry":{"type":"Point","coordinates":[-77.943949999999973,43.194430000000068]},"properties":{"OBJECTID":117,"ean_hotel_id":173729,"name":"Dollingers Inn & Suites","address1":"4908 Lake Rd S","city":"Brockport","state_province":"NY","postal_code":14420,"latitude":43.194429999999997,"longitude":-77.943950000000001,"star_rating":2.5,"high_rate":140.33000000000001,"low_rate":85.329999999999998}},{"type":"Feature","id":118,"geometry":{"type":"Point","coordinates":[-77.943969999999979,43.194330000000036]},"properties":{"OBJECTID":118,"ean_hotel_id":422144,"name":"Hampton Inn Brockport, NY","address1":"4873 Lake Rd S","city":"Brockport","state_province":"NY","postal_code":14420,"latitude":43.194330000000001,"longitude":-77.943969999999993,"star_rating":2.5,"high_rate":129.43000000000001,"low_rate":107.43000000000001}},{"type":"Feature","id":119,"geometry":{"type":"Point","coordinates":[-77.946079999999938,43.198350000000062]},"properties":{"OBJECTID":119,"ean_hotel_id":492714,"name":"Econo Lodge Brockport","address1":"6575 4th Section Rd","city":"Brockport","state_province":"NY","postal_code":14420,"latitude":43.198349999999998,"longitude":-77.946079999999995,"star_rating":2,"high_rate":70.480000000000004,"low_rate":65.480000000000004}},{"type":"Feature","id":120,"geometry":{"type":"Point","coordinates":[-73.915889999999933,40.815310000000068]},"properties":{"OBJECTID":120,"ean_hotel_id":438964,"name":"Opera House Hotel","address1":"436 East 149th Street","city":"Bronx","state_province":"NY","postal_code":10455,"latitude":40.815309999999997,"longitude":-73.915890000000005,"star_rating":3,"high_rate":209.47,"low_rate":169.47}},{"type":"Feature","id":121,"geometry":{"type":"Point","coordinates":[-73.877889999999979,40.870520000000056]},"properties":{"OBJECTID":121,"ean_hotel_id":428137,"name":"Rodeway Inn Bronx Zoo","address1":"3070-72 Webster Ave","city":"Bronx","state_province":"NY","postal_code":10467,"latitude":40.870519999999999,"longitude":-73.877889999999994,"star_rating":2,"high_rate":171.34,"low_rate":170.34}},{"type":"Feature","id":122,"geometry":{"type":"Point","coordinates":[-73.831869999999981,40.879790000000071]},"properties":{"OBJECTID":122,"ean_hotel_id":169333,"name":"Ramada Bronx","address1":"1000 Baychester Ave","city":"Bronx","state_province":"NY","postal_code":10475,"latitude":40.87979,"longitude":-73.831869999999995,"star_rating":3,"high_rate":241.13390000000001,"low_rate":140.23869999999999}},{"type":"Feature","id":123,"geometry":{"type":"Point","coordinates":[-73.911759999999958,40.826870000000042]},"properties":{"OBJECTID":123,"ean_hotel_id":269318,"name":"Days Inn Bronx Near Stadium","address1":"997 Brook Ave","city":"Bronx","state_province":"NY","postal_code":10451,"latitude":40.82687,"longitude":-73.911760000000001,"star_rating":2,"high_rate":184.03270000000001,"low_rate":126.66670000000001}},{"type":"Feature","id":124,"geometry":{"type":"Point","coordinates":[-73.881509999999935,40.839570000000037]},"properties":{"OBJECTID":124,"ean_hotel_id":217343,"name":"Howard Johnson Express Inn Bronx","address1":"1922 Boston Rd","city":"Bronx","state_province":"NY","postal_code":10460,"latitude":40.839570000000002,"longitude":-73.881510000000006,"star_rating":2,"high_rate":145.44999999999999,"low_rate":123.45}},{"type":"Feature","id":125,"geometry":{"type":"Point","coordinates":[-73.852669999999989,40.891920000000027]},"properties":{"OBJECTID":125,"ean_hotel_id":245493,"name":"Bronx Guesthouse","address1":"East 233 Street","city":"Bronx","state_province":"NY","postal_code":10466,"latitude":40.891919999999999,"longitude":-73.852670000000003,"star_rating":2,"high_rate":202.30000000000001,"low_rate":151.72499999999999}},{"type":"Feature","id":126,"geometry":{"type":"Point","coordinates":[-73.884809999999959,40.831140000000062]},"properties":{"OBJECTID":126,"ean_hotel_id":393691,"name":"Sheridan Hotel","address1":"1440 Sheridan Expy","city":"Bronx","state_province":"NY","postal_code":10459,"latitude":40.831139999999998,"longitude":-73.884810000000002,"star_rating":2,"high_rate":198.38999999999999,"low_rate":169.38999999999999}},{"type":"Feature","id":127,"geometry":{"type":"Point","coordinates":[-73.891899999999964,40.82770000000005]},"properties":{"OBJECTID":127,"ean_hotel_id":466093,"name":"Super 8 Bronx","address1":"1145 Southern Blvd","city":"Bronx","state_province":"NY","postal_code":10459,"latitude":40.8277,"longitude":-73.891900000000007,"star_rating":2,"high_rate":94.090000000000003,"low_rate":93.090000000000003}},{"type":"Feature","id":128,"geometry":{"type":"Point","coordinates":[-73.843629999999962,40.84958000000006]},"properties":{"OBJECTID":128,"ean_hotel_id":487266,"name":"Residence Inn New York The Bronx At Metro Center Atrium","address1":"1776 Eastchester Rd","city":"Bronx","state_province":"NY","postal_code":10461,"latitude":40.849580000000003,"longitude":-73.843630000000005,"star_rating":3,"high_rate":250.12,"low_rate":249.12}},{"type":"Feature","id":129,"geometry":{"type":"Point","coordinates":[-73.914669999999944,40.818850000000054]},"properties":{"OBJECTID":129,"ean_hotel_id":567182,"name":"Umbrella Hotel, An Ascend Hotel Collection Member","address1":"681 Elton Ave","city":"Bronx","state_province":"NY","postal_code":10455,"latitude":40.818849999999998,"longitude":-73.914670000000001,"star_rating":2.5,"high_rate":249.38,"low_rate":199.38}},{"type":"Feature","id":130,"geometry":{"type":"Point","coordinates":[-73.984359999999981,40.691600000000051]},"properties":{"OBJECTID":130,"ean_hotel_id":339951,"name":"Sheraton Brooklyn New York Hotel","address1":"228 Duffield Street","city":"Brooklyn","state_province":"NY","postal_code":11201,"latitude":40.691600000000001,"longitude":-73.984359999999995,"star_rating":4,"high_rate":409.14850000000001,"low_rate":259.09160000000003}},{"type":"Feature","id":131,"geometry":{"type":"Point","coordinates":[-73.948569999999961,40.678290000000061]},"properties":{"OBJECTID":131,"ean_hotel_id":348082,"name":"Best Western Plus Arena Hotel","address1":"1324 Atlantic Ave","city":"Brooklyn","state_province":"NY","postal_code":11216,"latitude":40.678289999999997,"longitude":-73.948570000000004,"star_rating":2.5,"high_rate":150.24000000000001,"low_rate":114.25}},{"type":"Feature","id":132,"geometry":{"type":"Point","coordinates":[-73.984349999999949,40.691720000000032]},"properties":{"OBJECTID":132,"ean_hotel_id":370872,"name":"Aloft New York Brooklyn","address1":"216 Duffield St","city":"Brooklyn","state_province":"NY","postal_code":11201,"latitude":40.691719999999997,"longitude":-73.984350000000006,"star_rating":3,"high_rate":509.45999999999998,"low_rate":249.46000000000001}},{"type":"Feature","id":133,"geometry":{"type":"Point","coordinates":[-73.988969999999938,40.688910000000078]},"properties":{"OBJECTID":133,"ean_hotel_id":272697,"name":"NU Hotel Brooklyn","address1":"85 Smith St","city":"Brooklyn","state_province":"NY","postal_code":11201,"latitude":40.68891,"longitude":-73.988969999999995,"star_rating":3.5,"high_rate":299.33999999999997,"low_rate":273.33999999999997}},{"type":"Feature","id":134,"geometry":{"type":"Point","coordinates":[-74.003499999999974,40.656500000000051]},"properties":{"OBJECTID":134,"ean_hotel_id":400022,"name":"Hotel BPM - Brooklyn New York","address1":"139 33rd street","city":"Brooklyn","state_province":"NY","postal_code":11232,"latitude":40.656500000000001,"longitude":-74.003500000000003,"star_rating":3.5,"high_rate":170.19,"low_rate":169.19}},{"type":"Feature","id":135,"geometry":{"type":"Point","coordinates":[-73.955429999999978,40.72100000000006]},"properties":{"OBJECTID":135,"ean_hotel_id":406834,"name":"McCarren Hotel & Pool","address1":"160 N 12th St","city":"Brooklyn","state_province":"NY","postal_code":11249,"latitude":40.720999999999997,"longitude":-73.955430000000007,"star_rating":4,"high_rate":575.40999999999997,"low_rate":330.41000000000003}},{"type":"Feature","id":136,"geometry":{"type":"Point","coordinates":[-73.98321999999996,40.679070000000024]},"properties":{"OBJECTID":136,"ean_hotel_id":385544,"name":"Union Hotel, an Ascend Hotel Collection Member","address1":"611 DeGraw St","city":"Brooklyn","state_province":"NY","postal_code":11217,"latitude":40.679070000000003,"longitude":-73.983220000000003,"star_rating":2.5,"high_rate":144.36000000000001,"low_rate":114.36}},{"type":"Feature","id":137,"geometry":{"type":"Point","coordinates":[-73.98452999999995,40.678000000000054]},"properties":{"OBJECTID":137,"ean_hotel_id":262957,"name":"Holiday Inn Express Brooklyn","address1":"625 Union St","city":"Brooklyn","state_province":"NY","postal_code":11215,"latitude":40.677999999999997,"longitude":-73.984530000000007,"star_rating":3,"high_rate":139.24000000000001,"low_rate":99.200000000000003}},{"type":"Feature","id":138,"geometry":{"type":"Point","coordinates":[-73.986579999999947,40.673040000000071]},"properties":{"OBJECTID":138,"ean_hotel_id":253355,"name":"Hotel Le Bleu","address1":"370 Fourth Ave","city":"Brooklyn","state_province":"NY","postal_code":11215,"latitude":40.67304,"longitude":-73.986580000000004,"star_rating":3,"high_rate":145.40000000000001,"low_rate":144.99000000000001}},{"type":"Feature","id":139,"geometry":{"type":"Point","coordinates":[-73.958639999999946,40.697500000000048]},"properties":{"OBJECTID":139,"ean_hotel_id":370130,"name":"Condor Hotel","address1":"56 Franklin Ave","city":"Brooklyn","state_province":"NY","postal_code":11205,"latitude":40.697499999999998,"longitude":-73.958640000000003,"star_rating":3.5,"high_rate":439.36000000000001,"low_rate":279.31}},{"type":"Feature","id":140,"geometry":{"type":"Point","coordinates":[-73.984399999999937,40.69124000000005]},"properties":{"OBJECTID":140,"ean_hotel_id":417594,"name":"Hotel Indigo BROOKLYN","address1":"229 Duffield St","city":"Brooklyn","state_province":"NY","postal_code":11201,"latitude":40.691240000000001,"longitude":-73.984399999999994,"star_rating":3.5,"high_rate":334.05000000000001,"low_rate":143.66909999999999}},{"type":"Feature","id":141,"geometry":{"type":"Point","coordinates":[-73.997779999999977,40.66306000000003]},"properties":{"OBJECTID":141,"ean_hotel_id":350857,"name":"Sleep Inn Brooklyn Downtown","address1":"134 22nd St","city":"Brooklyn","state_province":"NY","postal_code":11232,"latitude":40.663060000000002,"longitude":-73.997780000000006,"star_rating":2,"high_rate":149.19999999999999,"low_rate":129.19999999999999}},{"type":"Feature","id":142,"geometry":{"type":"Point","coordinates":[-73.993219999999951,40.668820000000039]},"properties":{"OBJECTID":142,"ean_hotel_id":339969,"name":"La Quinta Inn & Suites Brooklyn Downtown","address1":"533 3rd Ave","city":"Brooklyn","state_province":"NY","postal_code":11215,"latitude":40.668819999999997,"longitude":-73.993219999999994,"star_rating":2.5,"high_rate":189.44,"low_rate":169.44}},{"type":"Feature","id":143,"geometry":{"type":"Point","coordinates":[-73.953289999999981,40.737490000000037]},"properties":{"OBJECTID":143,"ean_hotel_id":403899,"name":"The Box House Hotel","address1":"77 Box Street","city":"Brooklyn","state_province":"NY","postal_code":11222,"latitude":40.737490000000001,"longitude":-73.953289999999996,"star_rating":4,"high_rate":379.42000000000002,"low_rate":249.41999999999999}},{"type":"Feature","id":144,"geometry":{"type":"Point","coordinates":[-73.950749999999971,40.716350000000034]},"properties":{"OBJECTID":144,"ean_hotel_id":263437,"name":"Hotel Le Jolie","address1":"235 Meeker Ave","city":"Brooklyn","state_province":"NY","postal_code":11211,"latitude":40.716349999999998,"longitude":-73.950749999999999,"star_rating":2.5,"high_rate":189.44,"low_rate":159.44}},{"type":"Feature","id":145,"geometry":{"type":"Point","coordinates":[-73.985769999999945,40.67784000000006]},"properties":{"OBJECTID":145,"ean_hotel_id":333610,"name":"Super 8 Brooklyn / Park Slope Hotel","address1":"267 3rd Ave","city":"Brooklyn","state_province":"NY","postal_code":11215,"latitude":40.677840000000003,"longitude":-73.985770000000002,"star_rating":2,"high_rate":561.07000000000005,"low_rate":271}},{"type":"Feature","id":146,"geometry":{"type":"Point","coordinates":[-73.984849999999938,40.681330000000059]},"properties":{"OBJECTID":146,"ean_hotel_id":256012,"name":"Red Lion Inn and Suites Brooklyn","address1":"279 Butler St","city":"Brooklyn","state_province":"NY","postal_code":11217,"latitude":40.681330000000003,"longitude":-73.984849999999994,"star_rating":3.5,"high_rate":329,"low_rate":309}},{"type":"Feature","id":147,"geometry":{"type":"Point","coordinates":[-74.027669999999944,40.624470000000031]},"properties":{"OBJECTID":147,"ean_hotel_id":123678,"name":"Best Western Gregory Hotel","address1":"8315 4th Ave","city":"Brooklyn","state_province":"NY","postal_code":11209,"latitude":40.624470000000002,"longitude":-74.027670000000001,"star_rating":2.5,"high_rate":205.34999999999999,"low_rate":125.34999999999999}},{"type":"Feature","id":148,"geometry":{"type":"Point","coordinates":[-73.95897999999994,40.699100000000044]},"properties":{"OBJECTID":148,"ean_hotel_id":376174,"name":"Pointe Plaza Hotel","address1":"2 Franklin Ave","city":"Brooklyn","state_province":"NY","postal_code":11249,"latitude":40.699100000000001,"longitude":-73.958979999999997,"star_rating":3,"high_rate":126.9366,"low_rate":125.9366}},{"type":"Feature","id":149,"geometry":{"type":"Point","coordinates":[-73.95614999999998,40.707840000000033]},"properties":{"OBJECTID":149,"ean_hotel_id":438068,"name":"International Students Residence","address1":"341 Broadway","city":"Brooklyn","state_province":"NY","postal_code":11211,"latitude":40.707839999999997,"longitude":-73.956149999999994,"star_rating":1.5,"high_rate":69.989999999999995,"low_rate":40.289999999999999}},{"type":"Feature","id":150,"geometry":{"type":"Point","coordinates":[-74.005799999999965,40.680160000000058]},"properties":{"OBJECTID":150,"ean_hotel_id":388700,"name":"Comfort Inn Red Hook","address1":"17 Seabring Street","city":"Brooklyn","state_province":"NY","postal_code":11231,"latitude":40.680160000000001,"longitude":-74.005799999999994,"star_rating":2.5,"high_rate":124.0796,"low_rate":114.095}},{"type":"Feature","id":151,"geometry":{"type":"Point","coordinates":[-73.998669999999947,40.659960000000069]},"properties":{"OBJECTID":151,"ean_hotel_id":362397,"name":"Brooklyn Way Hotel, BW Premier Collection","address1":"764 4th Ave","city":"Brooklyn","state_province":"NY","postal_code":11232,"latitude":40.659959999999998,"longitude":-73.998670000000004,"star_rating":2.5,"high_rate":180.36000000000001,"low_rate":162.36000000000001}},{"type":"Feature","id":152,"geometry":{"type":"Point","coordinates":[-73.983929999999987,40.680550000000039]},"properties":{"OBJECTID":152,"ean_hotel_id":360006,"name":"Fairfield Inn & Suites by Marriott New York Brooklyn","address1":"181 3rd Ave","city":"Brooklyn","state_province":"NY","postal_code":11217,"latitude":40.680549999999997,"longitude":-73.983930000000001,"star_rating":2.5,"high_rate":309.19999999999999,"low_rate":209.00999999999999}},{"type":"Feature","id":153,"geometry":{"type":"Point","coordinates":[-73.889369999999985,40.656770000000051]},"properties":{"OBJECTID":153,"ean_hotel_id":417441,"name":"Galaxy Motel","address1":"860 Pennsylvania Avenue","city":"Brooklyn","state_province":"NY","postal_code":11207,"latitude":40.656770000000002,"longitude":-73.88937,"star_rating":2,"high_rate":130.0206,"low_rate":110.0134}},{"type":"Feature","id":154,"geometry":{"type":"Point","coordinates":[-74.005169999999964,40.652040000000056]},"properties":{"OBJECTID":154,"ean_hotel_id":218905,"name":"Days Inn Brooklyn","address1":"437 39th Street","city":"Brooklyn","state_province":"NY","postal_code":11232,"latitude":40.65204,"longitude":-74.005170000000007,"star_rating":2,"high_rate":229,"low_rate":134.09999999999999}},{"type":"Feature","id":155,"geometry":{"type":"Point","coordinates":[-73.988699999999938,40.693650000000048]},"properties":{"OBJECTID":155,"ean_hotel_id":136344,"name":"New York Marriott at the Brooklyn Bridge","address1":"333 Adams St","city":"Brooklyn","state_province":"NY","postal_code":11201,"latitude":40.693649999999998,"longitude":-73.988699999999994,"star_rating":4,"high_rate":489.06999999999999,"low_rate":212.03999999999999}},{"type":"Feature","id":156,"geometry":{"type":"Point","coordinates":[-73.904699999999934,40.695940000000064]},"properties":{"OBJECTID":156,"ean_hotel_id":252992,"name":"Red Carpet Inn New York City","address1":"980 Wyckoff Ave","city":"Brooklyn","state_province":"NY","postal_code":11237,"latitude":40.69594,"longitude":-73.904700000000005,"star_rating":2,"high_rate":201.34,"low_rate":200.34}},{"type":"Feature","id":157,"geometry":{"type":"Point","coordinates":[-73.887409999999988,40.652270000000044]},"properties":{"OBJECTID":157,"ean_hotel_id":364363,"name":"Oasis Motel in Brooklyn","address1":"12091 Flatlands Ave","city":"Brooklyn","state_province":"NY","postal_code":11207,"latitude":40.652270000000001,"longitude":-73.887410000000003,"star_rating":1.5,"high_rate":329.94999999999999,"low_rate":328.94999999999999}},{"type":"Feature","id":158,"geometry":{"type":"Point","coordinates":[-73.903189999999938,40.67599000000007]},"properties":{"OBJECTID":158,"ean_hotel_id":257831,"name":"Lexington Inn - Brooklyn NY","address1":"2473 Atlantic Ave","city":"Brooklyn","state_province":"NY","postal_code":11207,"latitude":40.675989999999999,"longitude":-73.903189999999995,"star_rating":2.5,"high_rate":199.99000000000001,"low_rate":179.99000000000001}},{"type":"Feature","id":159,"geometry":{"type":"Point","coordinates":[-73.946999999999946,40.681360000000041]},"properties":{"OBJECTID":159,"ean_hotel_id":351559,"name":"Sankofa Aban Bed and Breakfast","address1":"107 Macon Street","city":"Brooklyn","state_province":"NY","postal_code":11216,"latitude":40.681359999999998,"longitude":-73.947000000000003,"star_rating":2.5,"high_rate":250.18000000000001,"low_rate":135.16999999999999}},{"type":"Feature","id":160,"geometry":{"type":"Point","coordinates":[-73.95906999999994,40.658870000000036]},"properties":{"OBJECTID":160,"ean_hotel_id":420944,"name":"Lefferts Gardens Residence Bed and Breakfast","address1":"44 Rutland Road","city":"Brooklyn","state_province":"NY","postal_code":11225,"latitude":40.65887,"longitude":-73.959069999999997,"star_rating":2.5,"high_rate":158.934,"low_rate":129.95189999999999}},{"type":"Feature","id":161,"geometry":{"type":"Point","coordinates":[-73.951329999999984,40.676940000000059]},"properties":{"OBJECTID":161,"ean_hotel_id":404600,"name":"The Missing Lantern","address1":"1156 Dean St","city":"Brooklyn","state_province":"NY","postal_code":11216,"latitude":40.676940000000002,"longitude":-73.951329999999999,"star_rating":2,"high_rate":190.44,"low_rate":160.44}},{"type":"Feature","id":162,"geometry":{"type":"Point","coordinates":[-73.884199999999964,40.678150000000073]},"properties":{"OBJECTID":162,"ean_hotel_id":364362,"name":"Riviera Motor Inn Brooklyn","address1":"2969 Atlantic Ave","city":"Brooklyn","state_province":"NY","postal_code":11208,"latitude":40.678150000000002,"longitude":-73.884200000000007,"star_rating":1.5,"high_rate":272.51249999999999,"low_rate":271.51249999999999}},{"type":"Feature","id":163,"geometry":{"type":"Point","coordinates":[-74.006139999999959,40.681830000000048]},"properties":{"OBJECTID":163,"ean_hotel_id":276847,"name":"Brooklyn Motor Inn","address1":"140 Hamilton Ave","city":"Brooklyn","state_province":"NY","postal_code":11231,"latitude":40.681829999999998,"longitude":-74.006140000000002,"star_rating":2,"high_rate":140.22,"low_rate":130.21000000000001}},{"type":"Feature","id":164,"geometry":{"type":"Point","coordinates":[-73.943979999999954,40.727950000000078]},"properties":{"OBJECTID":164,"ean_hotel_id":464762,"name":"Henry Norman Hotel","address1":"251 North Henry Street","city":"Brooklyn","state_province":"NY","postal_code":11222,"latitude":40.72795,"longitude":-73.943979999999996,"star_rating":3.5,"high_rate":300.04000000000002,"low_rate":299.04000000000002}},{"type":"Feature","id":165,"geometry":{"type":"Point","coordinates":[-73.945039999999949,40.678110000000061]},"properties":{"OBJECTID":165,"ean_hotel_id":448368,"name":"Hotel Lynx","address1":"1420 Atlantic Avenue","city":"Brooklyn","state_province":"NY","postal_code":11216,"latitude":40.678109999999997,"longitude":-73.945040000000006,"star_rating":2,"high_rate":159.30000000000001,"low_rate":139.30000000000001}},{"type":"Feature","id":166,"geometry":{"type":"Point","coordinates":[-73.984079999999949,40.695370000000025]},"properties":{"OBJECTID":166,"ean_hotel_id":459006,"name":"Hampton Inn Brooklyn Downtown NY","address1":"125 Flatbush Avenue Extension","city":"Brooklyn","state_province":"NY","postal_code":11201,"latitude":40.695369999999997,"longitude":-73.984080000000006,"star_rating":3,"high_rate":358.69049999999999,"low_rate":298.74239999999998}},{"type":"Feature","id":167,"geometry":{"type":"Point","coordinates":[-73.953179999999975,40.726950000000045]},"properties":{"OBJECTID":167,"ean_hotel_id":464655,"name":"Green Point YMCA","address1":"99 Meserole Avenue","city":"Brooklyn","state_province":"NY","postal_code":11222,"latitude":40.726950000000002,"longitude":-73.953180000000003,"star_rating":2,"high_rate":99.964699999999993,"low_rate":98.964699999999993}},{"type":"Feature","id":168,"geometry":{"type":"Point","coordinates":[-73.931109999999933,40.658880000000067]},"properties":{"OBJECTID":168,"ean_hotel_id":242563,"name":"Comfort Inn Brooklyn City Center","address1":"599 Utica Ave","city":"Brooklyn","state_province":"NY","postal_code":11203,"latitude":40.658880000000003,"longitude":-73.931110000000004,"star_rating":2.5,"high_rate":180.22999999999999,"low_rate":179.22999999999999}},{"type":"Feature","id":169,"geometry":{"type":"Point","coordinates":[-73.939489999999978,40.700830000000053]},"properties":{"OBJECTID":169,"ean_hotel_id":486518,"name":"Bklyn House","address1":"9 Beaver Street","city":"Brooklyn","state_province":"NY","postal_code":11206,"latitude":40.700830000000003,"longitude":-73.939490000000006,"star_rating":2.5,"high_rate":200.47999999999999,"low_rate":199.47999999999999}},{"type":"Feature","id":170,"geometry":{"type":"Point","coordinates":[-73.921959999999956,40.66856000000007]},"properties":{"OBJECTID":170,"ean_hotel_id":548227,"name":"La Quinta Inn & Suites Brooklyn East","address1":"1412 Pitkin Ave","city":"Brooklyn","state_province":"NY","postal_code":11233,"latitude":40.668559999999999,"longitude":-73.921959999999999,"star_rating":2.5,"high_rate":150.15000000000001,"low_rate":149.15000000000001}},{"type":"Feature","id":171,"geometry":{"type":"Point","coordinates":[-73.953249999999969,40.675710000000038]},"properties":{"OBJECTID":171,"ean_hotel_id":476903,"name":"Oyo Bed & Breakfast","address1":"1390 Bedford Avenue","city":"Brooklyn","state_province":"NY","postal_code":11216,"latitude":40.675710000000002,"longitude":-73.953249999999997,"star_rating":2.5,"high_rate":175.02889999999999,"low_rate":90.0167}},{"type":"Feature","id":172,"geometry":{"type":"Point","coordinates":[-73.940579999999954,40.700910000000079]},"properties":{"OBJECTID":172,"ean_hotel_id":491941,"name":"Sumner Hotel","address1":"22 Sumner Place","city":"Brooklyn","state_province":"NY","postal_code":11206,"latitude":40.70091,"longitude":-73.940579999999997,"star_rating":2,"high_rate":189.36000000000001,"low_rate":119.36}},{"type":"Feature","id":173,"geometry":{"type":"Point","coordinates":[-73.94083999999998,40.726510000000076]},"properties":{"OBJECTID":173,"ean_hotel_id":448516,"name":"Habitat 101","address1":"101 Sutton Street","city":"Brooklyn","state_province":"NY","postal_code":11222,"latitude":40.726509999999998,"longitude":-73.940839999999994,"star_rating":3,"high_rate":216.02000000000001,"low_rate":130.02000000000001}},{"type":"Feature","id":174,"geometry":{"type":"Point","coordinates":[-73.952309999999954,40.708780000000047]},"properties":{"OBJECTID":174,"ean_hotel_id":528548,"name":"Cesar Suites at New York South","address1":"381 S 3rd St","city":"Brooklyn","state_province":"NY","postal_code":11211,"latitude":40.708779999999997,"longitude":-73.952309999999997,"star_rating":3,"high_rate":1199,"low_rate":359.10000000000002}},{"type":"Feature","id":175,"geometry":{"type":"Point","coordinates":[-73.987739999999974,40.644190000000037]},"properties":{"OBJECTID":175,"ean_hotel_id":471886,"name":"Sleep Inn Prospect Park South","address1":"1118 36th St","city":"Brooklyn","state_province":"NY","postal_code":11218,"latitude":40.644190000000002,"longitude":-73.987740000000002,"star_rating":3,"high_rate":159.898,"low_rate":149.90440000000001}},{"type":"Feature","id":176,"geometry":{"type":"Point","coordinates":[-73.911599999999964,40.669300000000078]},"properties":{"OBJECTID":176,"ean_hotel_id":496013,"name":"Quality Inn","address1":"95 Chester Street","city":"Brooklyn","state_province":"NY","postal_code":11212,"latitude":40.6693,"longitude":-73.911600000000007,"star_rating":2.5,"high_rate":150.0172,"low_rate":140.00829999999999}},{"type":"Feature","id":177,"geometry":{"type":"Point","coordinates":[-73.899329999999964,40.657430000000033]},"properties":{"OBJECTID":177,"ean_hotel_id":358519,"name":"Americas Best Value Inn","address1":"1705 Linden Boulevard","city":"Brooklyn","state_province":"NY","postal_code":11212,"latitude":40.657429999999998,"longitude":-73.899330000000006,"star_rating":2,"high_rate":118.95,"low_rate":92.810000000000002}},{"type":"Feature","id":178,"geometry":{"type":"Point","coordinates":[-73.951219999999978,40.678660000000036]},"properties":{"OBJECTID":178,"ean_hotel_id":539305,"name":"The Brooklyn","address1":"1199 Atlantic Avenue","city":"Brooklyn","state_province":"NY","postal_code":11216,"latitude":40.678660000000001,"longitude":-73.951220000000006,"star_rating":3.5,"high_rate":199.44,"low_rate":189.44}},{"type":"Feature","id":179,"geometry":{"type":"Point","coordinates":[-73.938199999999938,40.583990000000028]},"properties":{"OBJECTID":179,"ean_hotel_id":507616,"name":"Best Western Plus Brooklyn Bay Hotel","address1":"3003 Emmons Avenue","city":"Brooklyn","state_province":"NY","postal_code":11235,"latitude":40.58399,"longitude":-73.938199999999995,"star_rating":2.5,"high_rate":190.21000000000001,"low_rate":171.22}},{"type":"Feature","id":180,"geometry":{"type":"Point","coordinates":[-73.889459999999985,40.669310000000053]},"properties":{"OBJECTID":180,"ean_hotel_id":508516,"name":"Vacation Rental in New York","address1":"416 Van Siclen Avenue","city":"Brooklyn","state_province":"NY","postal_code":11207,"latitude":40.669310000000003,"longitude":-73.88946,"star_rating":3,"high_rate":230.09,"low_rate":190.08000000000001}},{"type":"Feature","id":181,"geometry":{"type":"Point","coordinates":[-73.982539999999972,40.687620000000038]},"properties":{"OBJECTID":181,"ean_hotel_id":532228,"name":"Holiday Inn Brooklyn Downtown","address1":"300 Schermerhorn Road","city":"Brooklyn","state_province":"NY","postal_code":11217,"latitude":40.687620000000003,"longitude":-73.98254,"star_rating":3.5,"high_rate":314.0428,"low_rate":144.01820000000001}},{"type":"Feature","id":182,"geometry":{"type":"Point","coordinates":[-73.980409999999949,40.691920000000039]},"properties":{"OBJECTID":182,"ean_hotel_id":529152,"name":"New York City Summer Dorms","address1":"Conolly Hall, Long Island University","city":"Brooklyn","state_province":"NY","postal_code":11201,"latitude":40.691920000000003,"longitude":-73.980410000000006,"star_rating":2,"high_rate":34.920000000000002,"low_rate":33.920000000000002}},{"type":"Feature","id":183,"geometry":{"type":"Point","coordinates":[-73.984549999999956,40.69631000000004]},"properties":{"OBJECTID":183,"ean_hotel_id":512373,"name":"Dazzler Brooklyn","address1":"85 Flatbush Ave Extension","city":"Brooklyn","state_province":"NY","postal_code":11201,"latitude":40.696309999999997,"longitude":-73.984549999999999,"star_rating":3.5,"high_rate":542.50519999999995,"low_rate":230.48429999999999}},{"type":"Feature","id":184,"geometry":{"type":"Point","coordinates":[-73.961049999999943,40.623290000000054]},"properties":{"OBJECTID":184,"ean_hotel_id":486970,"name":"Midwood Suites Brooklyn","address1":"1078 East 15 Street","city":"Brooklyn","state_province":"NY","postal_code":11230,"latitude":40.623289999999997,"longitude":-73.96105,"star_rating":3,"high_rate":199,"low_rate":109}},{"type":"Feature","id":185,"geometry":{"type":"Point","coordinates":[-73.932439999999986,40.584150000000079]},"properties":{"OBJECTID":185,"ean_hotel_id":492753,"name":"Comfort Inn Brooklyn","address1":"3218 Emmons Ave","city":"Brooklyn","state_province":"NY","postal_code":11235,"latitude":40.584150000000001,"longitude":-73.93244,"star_rating":2.5,"high_rate":260.03059999999999,"low_rate":170.01390000000001}},{"type":"Feature","id":186,"geometry":{"type":"Point","coordinates":[-73.957299999999975,40.722430000000031]},"properties":{"OBJECTID":186,"ean_hotel_id":556612,"name":"The William Vale Hotel","address1":"111 North 12th Street","city":"Brooklyn","state_province":"NY","postal_code":11249,"latitude":40.722430000000003,"longitude":-73.957300000000004,"star_rating":5,"high_rate":659.37,"low_rate":299.37}},{"type":"Feature","id":187,"geometry":{"type":"Point","coordinates":[-73.982979999999941,40.584560000000067]},"properties":{"OBJECTID":187,"ean_hotel_id":545381,"name":"Sleep Inn Coney Island","address1":"2586 Stillwell Ave","city":"Brooklyn","state_province":"NY","postal_code":11223,"latitude":40.584560000000003,"longitude":-73.982979999999998,"star_rating":2,"high_rate":175.37,"low_rate":174.37}},{"type":"Feature","id":188,"geometry":{"type":"Point","coordinates":[-74.004699999999957,40.65175000000005]},"properties":{"OBJECTID":188,"ean_hotel_id":541165,"name":"Wyndham Garden Brooklyn Sunset Park","address1":"457 39th Street","city":"Brooklyn","state_province":"NY","postal_code":11232,"latitude":40.65175,"longitude":-74.0047,"star_rating":4,"high_rate":319.31,"low_rate":251.31}},{"type":"Feature","id":189,"geometry":{"type":"Point","coordinates":[-73.935499999999934,40.671710000000076]},"properties":{"OBJECTID":189,"ean_hotel_id":579402,"name":"Hipster's Cove Bed & Breakfast","address1":"1300 Sterling Place","city":"Brooklyn","state_province":"NY","postal_code":11213,"latitude":40.671709999999997,"longitude":-73.935500000000005,"star_rating":2.5,"high_rate":70.159999999999997,"low_rate":69.159999999999997}},{"type":"Feature","id":190,"geometry":{"type":"Point","coordinates":[-73.981739999999945,40.687450000000069]},"properties":{"OBJECTID":190,"ean_hotel_id":575179,"name":"EVEN Hotel Brooklyn","address1":"46 Nevins Street","city":"Brooklyn","state_province":"NY","postal_code":11217,"latitude":40.687449999999998,"longitude":-73.981740000000002,"star_rating":4,"high_rate":197.47,"low_rate":144.47}},{"type":"Feature","id":191,"geometry":{"type":"Point","coordinates":[-73.988129999999956,40.689790000000073]},"properties":{"OBJECTID":191,"ean_hotel_id":588558,"name":"Hilton Brooklyn New York","address1":"140 Schermerhorn Street","city":"Brooklyn","state_province":"NY","postal_code":11201,"latitude":40.689790000000002,"longitude":-73.988129999999998,"star_rating":4,"high_rate":264.44999999999999,"low_rate":249.44999999999999}},{"type":"Feature","id":192,"geometry":{"type":"Point","coordinates":[-73.995529999999974,40.701640000000054]},"properties":{"OBJECTID":192,"ean_hotel_id":606740,"name":"1 Hotel Brooklyn Bridge","address1":"60 Furman Street","city":"Brooklyn","state_province":"NY","postal_code":11201,"latitude":40.701639999999998,"longitude":-73.995530000000002,"star_rating":5,"high_rate":893.13,"low_rate":297}},{"type":"Feature","id":193,"geometry":{"type":"Point","coordinates":[-73.967029999999966,40.694080000000042]},"properties":{"OBJECTID":193,"ean_hotel_id":574577,"name":"The Justice Manor","address1":"154 Washington Ave","city":"Brooklyn","state_province":"NY","postal_code":11205,"latitude":40.69408,"longitude":-73.967029999999994,"star_rating":3,"high_rate":250.06,"low_rate":150.05000000000001}},{"type":"Feature","id":194,"geometry":{"type":"Point","coordinates":[-73.954809999999952,40.682740000000081]},"properties":{"OBJECTID":194,"ean_hotel_id":560109,"name":"Your NYC Vacation","address1":"61 Jefferson Avenue","city":"Brooklyn","state_province":"NY","postal_code":11216,"latitude":40.682740000000003,"longitude":-73.954809999999995,"star_rating":3.5,"high_rate":0,"low_rate":0}},{"type":"Feature","id":195,"geometry":{"type":"Point","coordinates":[-73.910369999999944,40.667120000000068]},"properties":{"OBJECTID":195,"ean_hotel_id":571573,"name":"Howard Johnson Brooklyn","address1":"524 Rockaway Avenue","city":"Brooklyn","state_province":"NY","postal_code":11212,"latitude":40.667119999999997,"longitude":-73.91037,"star_rating":2.5,"high_rate":399.68610000000001,"low_rate":299.51429999999999}},{"type":"Feature","id":196,"geometry":{"type":"Point","coordinates":[-73.951529999999934,40.713230000000067]},"properties":{"OBJECTID":196,"ean_hotel_id":593037,"name":"La Quinta Inn & Suites Brooklyn - Williamsburg","address1":"437 Union Avenue","city":"Brooklyn","state_province":"NY","postal_code":11211,"latitude":40.713230000000003,"longitude":-73.951530000000005,"star_rating":2.5,"high_rate":159.89019999999999,"low_rate":158.89019999999999}},{"type":"Feature","id":197,"geometry":{"type":"Point","coordinates":[-73.958119999999951,40.733050000000048]},"properties":{"OBJECTID":197,"ean_hotel_id":574283,"name":"Franklin Guesthouse","address1":"214 Franklin Street","city":"Brooklyn","state_province":"NY","postal_code":11222,"latitude":40.733049999999999,"longitude":-73.958119999999994,"star_rating":3,"high_rate":349.48000000000002,"low_rate":249.47999999999999}},{"type":"Feature","id":198,"geometry":{"type":"Point","coordinates":[-73.933179999999936,40.703850000000045]},"properties":{"OBJECTID":198,"ean_hotel_id":621717,"name":"Bogart Hotel","address1":"19 Bogart Street","city":"Brooklyn","state_province":"NY","postal_code":11206,"latitude":40.703850000000003,"longitude":-73.933179999999993,"star_rating":2.5,"high_rate":115.72,"low_rate":114.72}},{"type":"Feature","id":199,"geometry":{"type":"Point","coordinates":[-73.931049999999971,40.69429000000008]},"properties":{"OBJECTID":199,"ean_hotel_id":630346,"name":"Hotel RL by Red Lion Brooklyn","address1":"1080 Broadway","city":"Brooklyn","state_province":"NY","postal_code":11221,"latitude":40.694290000000002,"longitude":-73.931049999999999,"star_rating":3,"high_rate":159.43000000000001,"low_rate":134.43000000000001}},{"type":"Feature","id":200,"geometry":{"type":"Point","coordinates":[-73.950149999999951,40.67862000000008]},"properties":{"OBJECTID":200,"ean_hotel_id":668894,"name":"La Quinta Inn & Suites Brooklyn Central","address1":"1229 Atlantic Avenue","city":"Brooklyn","state_province":"NY","postal_code":11216,"latitude":40.678620000000002,"longitude":-73.950149999999994,"star_rating":2.5,"high_rate":0,"low_rate":0}},{"type":"Feature","id":201,"geometry":{"type":"Point","coordinates":[-73.964569999999981,40.685790000000054]},"properties":{"OBJECTID":201,"ean_hotel_id":675714,"name":"Illumination Bed & Breakfast","address1":"138 Saint James Place","city":"Brooklyn","state_province":"NY","postal_code":11238,"latitude":40.685789999999997,"longitude":-73.964569999999995,"star_rating":2.5,"high_rate":121.309,"low_rate":120.309}},{"type":"Feature","id":202,"geometry":{"type":"Point","coordinates":[-73.942229999999938,40.711790000000065]},"properties":{"OBJECTID":202,"ean_hotel_id":677501,"name":"Bright 3BR in Williamsburg by Sonder","address1":"Grand Street and Humboldt St","city":"Brooklyn","state_province":"NY","postal_code":11211,"latitude":40.711790000000001,"longitude":-73.942229999999995,"star_rating":3.5,"high_rate":0,"low_rate":0}},{"type":"Feature","id":203,"geometry":{"type":"Point","coordinates":[-78.872949999999946,42.890240000000063]},"properties":{"OBJECTID":203,"ean_hotel_id":126317,"name":"Holiday Inn Express & Suites Buffalo Downtown","address1":"601 Main St","city":"Buffalo","state_province":"NY","postal_code":14203,"latitude":42.890239999999999,"longitude":-78.872950000000003,"star_rating":2.5,"high_rate":139.00729999999999,"low_rate":119.0063}},{"type":"Feature","id":204,"geometry":{"type":"Point","coordinates":[-78.874439999999936,42.898290000000031]},"properties":{"OBJECTID":204,"ean_hotel_id":444461,"name":"Best Western on the Avenue","address1":"510 Delaware Ave","city":"Buffalo","state_province":"NY","postal_code":14202,"latitude":42.898290000000003,"longitude":-78.874440000000007,"star_rating":2.5,"high_rate":209.41999999999999,"low_rate":139.41999999999999}},{"type":"Feature","id":205,"geometry":{"type":"Point","coordinates":[-78.864619999999945,42.900340000000028]},"properties":{"OBJECTID":205,"ean_hotel_id":139991,"name":"DoubleTree Club by Hilton Buffalo Downtown","address1":"125 High St","city":"Buffalo","state_province":"NY","postal_code":14203,"latitude":42.90034,"longitude":-78.864620000000002,"star_rating":3,"high_rate":189.00989999999999,"low_rate":125.107}},{"type":"Feature","id":206,"geometry":{"type":"Point","coordinates":[-78.877019999999959,42.889910000000043]},"properties":{"OBJECTID":206,"ean_hotel_id":313375,"name":"Embassy Suites Buffalo","address1":"200 Delaware Avenue","city":"Buffalo","state_province":"NY","postal_code":14202,"latitude":42.88991,"longitude":-78.877020000000002,"star_rating":3.5,"high_rate":200.18000000000001,"low_rate":140.15000000000001}},{"type":"Feature","id":207,"geometry":{"type":"Point","coordinates":[-78.876859999999965,42.890530000000069]},"properties":{"OBJECTID":207,"ean_hotel_id":195844,"name":"Hampton Inn & Suites Buffalo Downtown","address1":"220 Delaware Ave","city":"Buffalo","state_province":"NY","postal_code":14202,"latitude":42.890529999999998,"longitude":-78.876859999999994,"star_rating":3,"high_rate":399.25,"low_rate":189}},{"type":"Feature","id":208,"geometry":{"type":"Point","coordinates":[-78.873539999999934,42.884930000000054]},"properties":{"OBJECTID":208,"ean_hotel_id":407475,"name":"Hotel @ The Lafayette","address1":"391 Washington St","city":"Buffalo","state_province":"NY","postal_code":14203,"latitude":42.884929999999997,"longitude":-78.873540000000006,"star_rating":3.5,"high_rate":239,"low_rate":149}},{"type":"Feature","id":209,"geometry":{"type":"Point","coordinates":[-78.874639999999943,42.888550000000066]},"properties":{"OBJECTID":209,"ean_hotel_id":111604,"name":"Hyatt Regency Buffalo / Hotel and Conference Center","address1":"Two Fountain Plaza","city":"Buffalo","state_province":"NY","postal_code":14202,"latitude":42.888550000000002,"longitude":-78.874639999999999,"star_rating":3.5,"high_rate":189.09,"low_rate":169.09}},{"type":"Feature","id":210,"geometry":{"type":"Point","coordinates":[-78.875239999999962,42.89563000000004]},"properties":{"OBJECTID":210,"ean_hotel_id":195178,"name":"The Mansion On Delaware Ave","address1":"414 Delaware Ave","city":"Buffalo","state_province":"NY","postal_code":14202,"latitude":42.895629999999997,"longitude":-78.875240000000005,"star_rating":4,"high_rate":410.56999999999999,"low_rate":225.43000000000001}},{"type":"Feature","id":211,"geometry":{"type":"Point","coordinates":[-78.875859999999989,42.877740000000074]},"properties":{"OBJECTID":211,"ean_hotel_id":454853,"name":"Courtyard Buffalo Downtown / Canalside","address1":"One Canalside, 125 Main Street","city":"Buffalo","state_province":"NY","postal_code":14203,"latitude":42.877740000000003,"longitude":-78.875860000000003,"star_rating":3,"high_rate":199.31999999999999,"low_rate":189.31999999999999}},{"type":"Feature","id":212,"geometry":{"type":"Point","coordinates":[-78.876989999999978,42.881450000000029]},"properties":{"OBJECTID":212,"ean_hotel_id":427323,"name":"Lofts on Pearl","address1":"92 Pearl Street","city":"Buffalo","state_province":"NY","postal_code":14202,"latitude":42.881450000000001,"longitude":-78.876990000000006,"star_rating":3,"high_rate":170,"low_rate":169}},{"type":"Feature","id":213,"geometry":{"type":"Point","coordinates":[-78.879899999999964,42.883650000000046]},"properties":{"OBJECTID":213,"ean_hotel_id":177257,"name":"Adam's Mark Buffalo","address1":"120 Church St","city":"Buffalo","state_province":"NY","postal_code":14202,"latitude":42.883650000000003,"longitude":-78.879900000000006,"star_rating":3,"high_rate":342.04000000000002,"low_rate":199.03}},{"type":"Feature","id":214,"geometry":{"type":"Point","coordinates":[-78.873769999999979,42.885970000000043]},"properties":{"OBJECTID":214,"ean_hotel_id":474465,"name":"Hilton Garden Inn Buffalo Downtown","address1":"10 Lafayette Square","city":"Buffalo","state_province":"NY","postal_code":14203,"latitude":42.88597,"longitude":-78.873769999999993,"star_rating":3,"high_rate":179.1474,"low_rate":129.1062}},{"type":"Feature","id":215,"geometry":{"type":"Point","coordinates":[-78.877159999999947,42.877220000000079]},"properties":{"OBJECTID":215,"ean_hotel_id":542976,"name":"Buffalo Marriott Harborcenter","address1":"95 Main St","city":"Buffalo","state_province":"NY","postal_code":14203,"latitude":42.877220000000001,"longitude":-78.877160000000003,"star_rating":3.5,"high_rate":299.49000000000001,"low_rate":199.49000000000001}},{"type":"Feature","id":216,"geometry":{"type":"Point","coordinates":[-78.876739999999984,42.890750000000025]},"properties":{"OBJECTID":216,"ean_hotel_id":589933,"name":"The Westin Buffalo","address1":"250 Delaware Ave","city":"Buffalo","state_province":"NY","postal_code":14202,"latitude":42.890749999999997,"longitude":-78.876739999999998,"star_rating":4,"high_rate":239.21000000000001,"low_rate":169.21000000000001}},{"type":"Feature","id":217,"geometry":{"type":"Point","coordinates":[-76.850539999999967,42.41727000000003]},"properties":{"OBJECTID":217,"ean_hotel_id":683102,"name":"Burdett House Bed & Breakfast","address1":"3789 Main Street","city":"Burdett","state_province":"NY","postal_code":14818,"latitude":42.417270000000002,"longitude":-76.850539999999995,"star_rating":3,"high_rate":126.20999999999999,"low_rate":125.20999999999999}},{"type":"Feature","id":218,"geometry":{"type":"Point","coordinates":[-75.841689999999971,44.033710000000042]},"properties":{"OBJECTID":218,"ean_hotel_id":185040,"name":"Motel 6 Calcium, NY","address1":"8000 Virginia Smith Drive","city":"Calcium","state_province":"NY","postal_code":13616,"latitude":44.033709999999999,"longitude":-75.84169,"star_rating":2,"high_rate":66.469999999999999,"low_rate":50.469999999999999}},{"type":"Feature","id":219,"geometry":{"type":"Point","coordinates":[-74.975839999999948,41.762280000000032]},"properties":{"OBJECTID":219,"ean_hotel_id":224504,"name":"Villa Roma Resort and Conference Center","address1":"356 Villa Roma Rd","city":"Callicoon","state_province":"NY","postal_code":12723,"latitude":41.762279999999997,"longitude":-74.975840000000005,"star_rating":3,"high_rate":414.99939999999998,"low_rate":249.60140000000001}},{"type":"Feature","id":220,"geometry":{"type":"Point","coordinates":[-77.234479999999962,42.869570000000067]},"properties":{"OBJECTID":220,"ean_hotel_id":525467,"name":"Econo Lodge Inn & Suites Canandaigua","address1":"4232 Route 5 and 20","city":"Canandaigua","state_province":"NY","postal_code":14424,"latitude":42.869570000000003,"longitude":-77.234480000000005,"star_rating":2,"high_rate":61.310000000000002,"low_rate":60.310000000000002}},{"type":"Feature","id":221,"geometry":{"type":"Point","coordinates":[-77.249799999999937,42.876440000000059]},"properties":{"OBJECTID":221,"ean_hotel_id":421629,"name":"Holiday Inn Express Canandaigua - Finger Lakes","address1":"330 Eastern Blvd.","city":"Canandaigua","state_province":"NY","postal_code":14424,"latitude":42.876440000000002,"longitude":-77.249799999999993,"star_rating":2.5,"high_rate":134.34,"low_rate":97.340000000000003}},{"type":"Feature","id":222,"geometry":{"type":"Point","coordinates":[-77.314289999999971,42.843830000000025]},"properties":{"OBJECTID":222,"ean_hotel_id":328763,"name":"Chalet of Canandaigua","address1":"3770 State Route 21","city":"Canandaigua","state_province":"NY","postal_code":14424,"latitude":42.843829999999997,"longitude":-77.31429,"star_rating":4,"high_rate":246.37,"low_rate":245.37}},{"type":"Feature","id":223,"geometry":{"type":"Point","coordinates":[-77.31398999999999,42.785260000000051]},"properties":{"OBJECTID":223,"ean_hotel_id":411546,"name":"Onanda by the Lake","address1":"4926 West Lake Road","city":"Canandaigua","state_province":"NY","postal_code":14424,"latitude":42.785260000000001,"longitude":-77.313990000000004,"star_rating":3,"high_rate":156.31,"low_rate":155.31}},{"type":"Feature","id":224,"geometry":{"type":"Point","coordinates":[-77.256869999999935,42.87778000000003]},"properties":{"OBJECTID":224,"ean_hotel_id":201894,"name":"Super 8 Canandaigua","address1":"4450 Eastern Blvd","city":"Canandaigua","state_province":"NY","postal_code":14424,"latitude":42.877780000000001,"longitude":-77.256870000000006,"star_rating":2,"high_rate":93.382900000000006,"low_rate":57.234999999999999}},{"type":"Feature","id":225,"geometry":{"type":"Point","coordinates":[-77.231439999999964,42.890320000000031]},"properties":{"OBJECTID":225,"ean_hotel_id":600871,"name":"Morgan Samuels Inn","address1":"2920 Smith Rd","city":"Canandaigua","state_province":"NY","postal_code":14424,"latitude":42.890320000000003,"longitude":-77.231440000000006,"star_rating":4,"high_rate":299.22000000000003,"low_rate":189.22}},{"type":"Feature","id":226,"geometry":{"type":"Point","coordinates":[-77.281639999999982,42.863470000000063]},"properties":{"OBJECTID":226,"ean_hotel_id":597994,"name":"1837 Cobblestone Cottage","address1":"3402 West Lake Rd","city":"Canandaigua","state_province":"NY","postal_code":14424,"latitude":42.86347,"longitude":-77.281639999999996,"star_rating":4,"high_rate":245.06,"low_rate":215.06}},{"type":"Feature","id":227,"geometry":{"type":"Point","coordinates":[-77.287259999999947,42.895520000000033]},"properties":{"OBJECTID":227,"ean_hotel_id":593637,"name":"Bed and Breakfast at Oliver Phelps","address1":"252 North Main Street","city":"Canandaigua","state_province":"NY","postal_code":14424,"latitude":42.895519999999998,"longitude":-77.287260000000003,"star_rating":4,"high_rate":209.8263,"low_rate":169.85939999999999}},{"type":"Feature","id":228,"geometry":{"type":"Point","coordinates":[-77.324799999999982,42.918620000000033]},"properties":{"OBJECTID":228,"ean_hotel_id":659769,"name":"The Bella Ella Bed & Breakfast","address1":"2300 Brickyard Rd","city":"Canandaigua","state_province":"NY","postal_code":14424,"latitude":42.918619999999997,"longitude":-77.324799999999996,"star_rating":3,"high_rate":90.200000000000003,"low_rate":66.200000000000003}},{"type":"Feature","id":229,"geometry":{"type":"Point","coordinates":[-77.406209999999987,42.757430000000056]},"properties":{"OBJECTID":229,"ean_hotel_id":682922,"name":"Filigree Inn Bed & Breakfast","address1":"5406 Bristol Valley Road Route 64","city":"Canandaigua","state_province":"NY","postal_code":14424,"latitude":42.757429999999999,"longitude":-77.406210000000002,"star_rating":3,"high_rate":170.0463,"low_rate":169.0463}},{"type":"Feature","id":230,"geometry":{"type":"Point","coordinates":[-75.75106999999997,43.089290000000062]},"properties":{"OBJECTID":230,"ean_hotel_id":128750,"name":"Days Inn Canastota/Syracuse","address1":"377 North Peterboro Street","city":"Canastota","state_province":"NY","postal_code":13032,"latitude":43.089289999999998,"longitude":-75.751069999999999,"star_rating":2,"high_rate":80.480000000000004,"low_rate":75.480000000000004}},{"type":"Feature","id":231,"geometry":{"type":"Point","coordinates":[-75.15346999999997,44.596630000000062]},"properties":{"OBJECTID":231,"ean_hotel_id":476203,"name":"Best Western University Inn","address1":"90 E Main Street","city":"Canton","state_province":"NY","postal_code":null,"latitude":44.596629999999998,"longitude":-75.153469999999999,"star_rating":3,"high_rate":149.44,"low_rate":116.44}},{"type":"Feature","id":232,"geometry":{"type":"Point","coordinates":[-75.139029999999934,44.601370000000031]},"properties":{"OBJECTID":232,"ean_hotel_id":122324,"name":"University Suites Hotel","address1":"6000 US 11","city":"Canton","state_province":"NY","postal_code":13617,"latitude":44.601370000000003,"longitude":-75.139030000000005,"star_rating":2.5,"high_rate":169.99000000000001,"low_rate":119.98999999999999}},{"type":"Feature","id":233,"geometry":{"type":"Point","coordinates":[-73.61949999999996,40.74944000000005]},"properties":{"OBJECTID":233,"ean_hotel_id":427011,"name":"Homewood Suites by Hilton Carle Place - Garden City, NY","address1":"40 Westbury Ave","city":"Carle Place","state_province":"NY","postal_code":11514,"latitude":40.74944,"longitude":-73.619500000000002,"star_rating":3,"high_rate":179.03,"low_rate":151.05000000000001}},{"type":"Feature","id":234,"geometry":{"type":"Point","coordinates":[-73.620399999999961,40.749250000000075]},"properties":{"OBJECTID":234,"ean_hotel_id":577918,"name":"Springhill Suites by Marriott Carle Place Garden City","address1":"20 Westbury Avenue","city":"Carle Place","state_province":"NY","postal_code":11514,"latitude":40.749250000000004,"longitude":-73.620400000000004,"star_rating":3,"high_rate":179.40000000000001,"low_rate":169.40000000000001}},{"type":"Feature","id":235,"geometry":{"type":"Point","coordinates":[-75.626809999999978,43.972470000000044]},"properties":{"OBJECTID":235,"ean_hotel_id":438212,"name":"Pleasant Night Inn","address1":"30 N Broad St","city":"Carthage","state_province":"NY","postal_code":13619,"latitude":43.972470000000001,"longitude":-75.626810000000006,"star_rating":2,"high_rate":86.409999999999997,"low_rate":85.409999999999997}},{"type":"Feature","id":236,"geometry":{"type":"Point","coordinates":[-75.840769999999964,42.925650000000076]},"properties":{"OBJECTID":236,"ean_hotel_id":602129,"name":"Hampton Inn & Suites Cazenovia","address1":"25 Lakers Ln","city":"Cazenovia","state_province":"NY","postal_code":13035,"latitude":42.925649999999997,"longitude":-75.840770000000006,"star_rating":2.5,"high_rate":169.31,"low_rate":149.31}},{"type":"Feature","id":237,"geometry":{"type":"Point","coordinates":[-75.852949999999964,42.930180000000064]},"properties":{"OBJECTID":237,"ean_hotel_id":615796,"name":"The Lincklaen House","address1":"79 Albany Street","city":"Cazenovia","state_province":"NY","postal_code":13035,"latitude":42.93018,"longitude":-75.852950000000007,"star_rating":3,"high_rate":130.44999999999999,"low_rate":130}},{"type":"Feature","id":238,"geometry":{"type":"Point","coordinates":[-73.372159999999951,40.888000000000034]},"properties":{"OBJECTID":238,"ean_hotel_id":397560,"name":"Chalet Inn & Suites Centerport","address1":"23 Centershore Road","city":"Centerport","state_province":"NY","postal_code":null,"latitude":40.887999999999998,"longitude":-73.372159999999994,"star_rating":2,"high_rate":120.0077,"low_rate":119.0077}},{"type":"Feature","id":239,"geometry":{"type":"Point","coordinates":[-73.192199999999957,40.764430000000061]},